practice_code,practice_name,nhs_region,icb_code,town,postcode,phone,lat,lon
A81001,THE DENSHAM SURGERY,North East and Yorkshire,QHM,STOCKTON-ON-TEES,TS18 1HU,01642 672351,54.561637,-1.318999
A81002,QUEENS PARK MEDICAL CENTRE,North East and Yorkshire,QHM,STOCKTON ON TEES,TS18 2AW,01642 618170,54.569175,-1.313893
A81004,ACKLAM MEDICAL CENTRE,North East and Yorkshire,QHM,MIDDLESBROUGH,TS5 8SB,01642 827697,54.538198,-1.262142
A81005,SPRINGWOOD SURGERY,North East and Yorkshire,QHM,GUISBOROUGH,TS14 7DJ,01287 619611,54.53261,-1.055459
A81006,TENNANT STREET MEDICAL PRACTICE,North East and Yorkshire,QHM,STOCKTON-ON-TEES,TS18 2AT,01642 613331,54.568616,-1.313593
A81007,BANKHOUSE SURGERY,North East and Yorkshire,QHM,HARTLEPOOL,TS24 7PW,01429 274800,54.682342,-1.214164
A81009,VILLAGE MEDICAL CENTRE,North East and Yorkshire,QHM,MIDDLESBROUGH,TS5 6HF,01642 851122,54.562285,-1.241897
A81011,CHADWICK PRACTICE,North East and Yorkshire,QHM,HARTLEPOOL,TS24 7PW,01429 234646,54.682342,-1.214164
A81012,WESTBOURNE MEDICAL CENTRE,North East and Yorkshire,QHM,MIDDLESBROUGH,TS3 6AL,01642 277000,54.571738,-1.216246
A81013,BROTTON SURGERY,North East and Yorkshire,QHM,SALTBURN-BY-THE-SEA,TS12 2FF,01287 676215,54.565279,-0.936373
A81014,QUEENSTREE PRACTICE,North East and Yorkshire,QHM,BILLINGHAM,TS23 2LA,01642 553389,54.608303,-1.294813
A81016,PARK SURGERY,North East and Yorkshire,QHM,MIDDLESBROUGH,TS1 3QY,0300 1112300,54.566667,-1.240007
A81017,WOODBRIDGE PRACTICE,North East and Yorkshire,QHM,STOCKTON-ON-TEES,TS17 0EE,01642 762636,54.538161,-1.292142
A81018,BENTLEY MEDICAL PRACTICE,North East and Yorkshire,QHM,REDCAR,TS10 4NW,01642 470444,54.599299,-1.068807
A81019,CROSSFELL HEALTH CENTRE,North East and Yorkshire,QHM,MIDDLESBROUGH,TS3 7RL,01642 296777,54.560975,-1.204406
A81020,MARTONSIDE MEDICAL CENTRE,North East and Yorkshire,QHM,MIDDLESBROUGH,TS4 3BU,01642 812266,54.553188,-1.220343
A81021,NORMANBY MEDICAL CENTRE,North East and Yorkshire,QHM,MIDDLESBROUGH,TS6 6TD,01642 511660,54.571137,-1.168043
A81022,HILLSIDE PRACTICE,North East and Yorkshire,QHM,SALTBURN BY THE SEA,TS12 2TG,01287 650430,54.563154,-0.980814
A81023,THE ENDEAVOUR PRACTICE,North East and Yorkshire,QHM,MIDDLESBROUGH,TS1 2NX,01642 242192,54.575059,-1.235411
A81025,THE DOVECOT SURGERY,North East and Yorkshire,QHM,STOCKTON-ON-TEES,TS18 1HU,01642 676520,54.561637,-1.318999
A81026,LINTHORPE SURGERY,North East and Yorkshire,QHM,MIDDLESBROUGH,TS5 6HA,01642 856066,54.563343,-1.241615
A81027,YARM MEDICAL PRACTICE,North East and Yorkshire,QHM,YARM,TS15 9DD,01642 745800,54.505085,-1.355828
A81029,PROSPECT SURGERY,North East and Yorkshire,QHM,MIDDLESBROUGH,TS1 2NX,01642 210220,54.575059,-1.235411
A81030,BOROUGH ROAD & NUNTHORPE MEDICAL GROUP,North East and Yorkshire,QHM,MIDDLESBROUGH,TS1 3RY,01642 243668,54.571979,-1.227224
A81031,HAVELOCK GRANGE PRACTICE,North East and Yorkshire,QHM,HARTLEPOOL,TS24 7PW,01429 272000,54.682342,-1.214164
A81032,THE GARTH,North East and Yorkshire,QHM,GUISBOROUGH,TS14 7DJ,01287 632206,54.53261,-1.055459
A81034,THORNABY & BARWICK MEDICAL GROUP,North East and Yorkshire,QHM,STOCKTON-ON-TEES,TS17 0EE,01642 762921,54.538161,-1.292142
A81035,NEWLANDS MEDICAL CENTRE,North East and Yorkshire,QHM,MIDDLESBROUGH,TS1 3RX,01642 247029,54.571944,-1.226049
A81036,NORTON MEDICAL CENTRE,North East and Yorkshire,QHM,STOCKTON-ON-TEES,TS20 2UZ,01642 745350,54.588737,-1.308737
A81037,THE ERIMUS PRACTICE,North East and Yorkshire,QHM,MIDDLESBROUGH,TS1 2NX,01642 242746,54.575059,-1.235411
A81038,HIRSEL MEDICAL CENTRE,North East and Yorkshire,QHM,MIDDLESBROUGH,TS3 6AL,01642 242880,54.571738,-1.216246
A81039,EAGLESCLIFFE MEDICAL PRACTICE,North East and Yorkshire,QHM,STOCKTON-ON-TEES,TS16 9EA,01642 780113,54.520025,-1.348131
A81040,MARSH HOUSE MEDICAL PRACTICE,North East and Yorkshire,QHM,BILLINGHAM,TS23 2DG,01642 561282,54.611738,-1.29223
A81041,HART MEDICAL PRACTICE,North East and Yorkshire,QHM,HARTLEPOOL,TS24 9DN,01429 282700,54.70398,-1.223445
A81042,SOUTH GRANGE MEDICAL GROUP PRACTICE,North East and Yorkshire,QHM,MIDDLESBROUGH,TS6 9QG,01642 467001,54.569967,-1.16652
A81044,MCKENZIE HOUSE SURGERY,North East and Yorkshire,QHM,HARTLEPOOL,TS25 1QU,01429 230000,54.672432,-1.210401
A81045,THE COATHAM ROAD SURGERY,North East and Yorkshire,QHM,REDCAR,TS10 1SR,01642 483638,54.617378,-1.071941
A81046,WOODLANDS FAMILY MEDICAL CENTRE,North East and Yorkshire,QHM,STOCKTON-ON-TEES,TS18 1YE,01642 607398,54.561227,-1.321217
A81048,ZETLAND MEDICAL PRACTICE,North East and Yorkshire,QHM,REDCAR,TS11 7BL,01642 477133,54.591713,-1.016408
A81049,KINGS MEDICAL CENTRE,North East and Yorkshire,QHM,MIDDLESBROUGH,TS3 6AL,01642 244766,54.571738,-1.216246
A81051,CAMBRIDGE MEDICAL GROUP,North East and Yorkshire,QHM,MIDDLESBROUGH,TS5 5NN,01642 851177,54.554162,-1.252314
A81052,THE GREEN HOUSE SURGERY,North East and Yorkshire,QHM,REDCAR,TS10 4NW,01642 475157,54.599299,-1.068807
A81053,WOODSIDE SURGERY,North East and Yorkshire,QHM,SALTBURN-BY-THE-SEA,TS13 4HW,01287 640385,54.553923,-0.886804
A81054,THE SALTSCAR SURGERY,North East and Yorkshire,QHM,REDCAR,TS10 1UA,01642 471388,54.616294,-1.073653
A81056,MELROSE SURGERY,North East and Yorkshire,QHM,BILLINGHAM,TS23 2JW,01642 553055,54.609409,-1.287316
A81057,KINGSWAY MEDICAL CENTRE,North East and Yorkshire,QHM,BILLINGHAM,TS23 2LS,01642 554967,54.606471,-1.289024
A81058,COULBY MEDICAL PRACTICE,North East and Yorkshire,QHM,MIDDLESBROUGH,TS8 0TL,01642 746800,54.524817,-1.213775
A81060,WEST QUAY MEDICAL PRACTICE,North East and Yorkshire,QHM,HARTLEPOOL,TS26 8DB,01429 278179,54.685184,-1.217273
A81063,THE HEADLAND MEDICAL CENTRE,North East and Yorkshire,QHM,HARTLEPOOL,TS24 0NZ,01429 222170,54.696651,-1.18312
A81064,THE DISCOVERY PRACTICE,North East and Yorkshire,QHM,MIDDLESBROUGH,TS1 2NX,01642 245069,54.575059,-1.235411
A81066,PARK LANE SURGERY,North East and Yorkshire,QHM,STOCKTON-ON-TEES,TS21 1JS,01740 631001,54.60465,-1.425143
A81067,ALMA MEDICAL CENTRE,North East and Yorkshire,QHM,STOCKTON-ON-TEES,TS18 2BP,01642 607248,54.569502,-1.317661
A81070,MCKENZIE GROUP PRACTICE,North East and Yorkshire,QHM,HARTLEPOOL,TS25 3DQ,01429 223195,54.660476,-1.239281
A81602,DR RASOOL,North East and Yorkshire,QHM,BILLINGHAM,TS23 2DG,01642 360033,54.611738,-1.29223
A81608,ELM TREE SURGERY,North East and Yorkshire,QHM,STOCKTON-ON-TEES,TS17 6PG,01642 616663,54.554886,-1.29966
A81610,THE ROSEBERRY PRACTICE,North East and Yorkshire,QHM,BILLINGHAM,TS23 2DG,01642 552700,54.611738,-1.29223
A81611,PARKWAY MEDICAL CENTRE,North East and Yorkshire,QHM,MIDDLESBROUGH,TS8 0TL,01642 270033,54.524817,-1.213775
A81612,THE PATEL PRACTICE,North East and Yorkshire,QHM,HARTLEPOOL,TS25 1AX,01429 278827,54.661414,-1.188586
A81618,HUNTCLIFF SURGERY,North East and Yorkshire,QHM,SALTBURN-BY-THE-SEA,TS12 1BJ,01287 622207,54.582776,-0.974707
A81621,THORNTREE SURGERY,North East and Yorkshire,QHM,MIDDLESBROUGH,TS3 9NB,0300 1112300,54.565221,-1.183474
A81622,GLADSTONE HOUSE SURGERY,North East and Yorkshire,QHM,HARTLEPOOL,TS26 8DF,01429 297290,54.685211,-1.218591
A81629,RIVERSIDE MEDICAL PRACTICE,North East and Yorkshire,QHM,STOCKTON-ON-TEES,TS18 2AP,01642 604117,54.56887,-1.315584
A81631,WEST VIEW MILLENIUM SURGERY A,North East and Yorkshire,QHM,HARTLEPOOL,TS24 9LJ,01429 890400,54.709889,-1.22282
A82003,ULVERSTON MEDICAL PRACTICE,North West,QE1,ULVERSTON,LA12 7BT,01229 484141,54.198891,-3.097833
A82004,ALSTON MEDICAL PRACTICE,North East and Yorkshire,QHM,ALSTON,CA9 3QU,01434 381214,54.810742,-2.440174
A82005,AMBLESIDE HEALTH CENTRE,North West,QE1,AMBLESIDE,LA22 9BP,01539 432693,54.435059,-2.96636
A82006,APPLEBY MEDICAL PRACTICE,North East and Yorkshire,QHM,APPLEBY-IN-WESTMORLAND,CA16 6QR,01768 351584,54.57809,-2.492998
A82007,DUKE STREET SURGERY,North West,QE1,BARROW-IN-FURNESS,LA14 1LF,01229 820068,54.110679,-3.225657
A82008,NORWOOD MEDICAL CENTRE,North West,QE1,BARROW-IN-FURNESS,LA14 5ES,01229 402525,54.119209,-3.222971
A82009,BRIDGEGATE MEDICAL CENTRE,North West,QE1,BARROW-IN-FURNESS,LA13 9SH,01229 820304,54.11433,-3.208692
A82010,ABBEY ROAD SURGERY,North West,QE1,BARROW-IN-FURNESS,LA14 2LB,01229 821599,54.109942,-3.224779
A82012,BRAMPTON MEDICAL PRACTICE,North East and Yorkshire,QHM,BRAMPTON,CA8 1NL,01697 72551,54.94237,-2.734846
A82013,UPPER EDEN MEDICAL PRACTICE,North East and Yorkshire,QHM,KIRKBY STEPHEN,CA17 4RB,01768 371369,54.474727,-2.350139
A82014,CALDBECK SURGERY,North East and Yorkshire,QHM,WIGTON,CA7 8DS,01697 478254,54.749871,-3.050627
A82015,CARLISLE CENTRAL PRACTICE,North East and Yorkshire,QHM,CARLISLE,CA1 1EB,01228 536303,54.893802,-2.928497
A82016,CARLISLE HEALTHCARE,North East and Yorkshire,QHM,CARLISLE,CA1 3UB,01228 588121,54.885364,-2.903502
A82018,SPENCER ST SURGERY,North East and Yorkshire,QHM,CARLISLE,CA1 1BP,01228 529171,54.894887,-2.931157
A82020,EDEN MEDICAL GROUP,North East and Yorkshire,QHM,CARLISLE,CA2 7AJ,01228 524477,54.894174,-2.952455
A82021,CASTLEGATE AND DERWENT SURGERY,North East and Yorkshire,QHM,COCKERMOUTH,CA13 9HT,01900 705750,54.667192,-3.358501
A82022,DALSTON MEDICAL GROUP,North East and Yorkshire,QHM,CARLISLE,CA5 7PZ,01228 710451,54.841382,-2.985547
A82023,DISTINGTON SURGERY,North East and Yorkshire,QHM,WORKINGTON,CA14 5UR,01946 830207,54.595313,-3.541352
A82024,SEASCALE HEALTH CENTRE,North East and Yorkshire,QHM,SEASCALE,CA20 1PN,01946 728101,54.396973,-3.479867
A82025,CAPTAIN FRENCH SURGERY,North West,QE1,KENDAL,LA9 4JE,01539 720241,54.323439,-2.748564
A82026,THE JAMES COCHRANE PRACT.,North West,QE1,KENDAL,LA9 7HR,01539 718080,54.312706,-2.737133
A82027,STATION HOUSE SURGERY,North West,QE1,KENDAL,LA9 6SA,01539 722660,54.331889,-2.739537
A82028,CASTLEHEAD MEDICAL CENTRE,North East and Yorkshire,QHM,KESWICK,CA12 4DB,01768 772025,54.597698,-3.134576
A82029,THE CROFT SURGERY,North East and Yorkshire,QHM,WIGTON,CA7 5JH,01697 351207,54.896921,-3.202915
A82030,LUNESDALE SURGERY,North West,QE1,CARNFORTH,LA6 2HQ,01524 271210,54.200584,-2.602214
A82031,SHAP MEDICAL PRACTICE,North East and Yorkshire,QHM,PENRITH,CA10 3LW,01931 716230,54.528899,-2.677936
A82032,MARYPORT HEALTH SERVICES,North East and Yorkshire,QHM,MARYPORT,CA15 8EL,01900 815544,54.706439,-3.494532
A82033,WATERLOO HOUSE SURGERY,North West,QE1,MILLOM,LA18 4BY,01229 486924,54.208948,-3.268021
A82035,BIRBECK MEDICAL GROUP,North East and Yorkshire,QHM,PENRITH,CA11 8HW,01768 214620,54.656225,-2.743839
A82036,THE LAKES MEDICAL PRACTICE,North East and Yorkshire,QHM,PENRITH,CA11 8HW,01768 214345,54.656225,-2.743839
A82037,SILLOTH GROUP MEDICAL PRACTICE,North East and Yorkshire,QHM,WIGTON,CA7 4AH,01697 331309,54.86971,-3.393572
A82038,TEMPLE SOWERBY MEDICAL PRACTICE,North East and Yorkshire,QHM,PENRITH,CA10 1RW,01768 361232,54.636786,-2.605304
A82039,DALTON SURGERY,North West,QE1,DALTON-IN-FURNESS,LA15 8AB,01229 462591,54.155925,-3.179815
A82041,LOWTHER MEDICAL CENTRE,North East and Yorkshire,QHM,WHITEHAVEN,CA28 7RG,01946 692241,54.545063,-3.586393
A82044,FELLVIEW HEALTHCARE,North East and Yorkshire,QHM,EGREMONT,CA22 2BD,01946 820203,54.482542,-3.532986
A82045,WIGTON GROUP MEDICAL PRACTICE,North East and Yorkshire,QHM,WIGTON,CA7 9QD,01697 342254,54.82033,-3.159035
A82046,WINDERMERE HEALTH CENTRE,North West,QE1,WINDERMERE,LA23 2EG,01539 445159,54.370879,-2.913424
A82047,JAMES STREET GROUP PRACT,North East and Yorkshire,QHM,WORKINGTON,CA14 2DL,01900 62241,54.644838,-3.550292
A82053,NUTWOOD MEDICAL PRACTICE,North West,QE1,GRANGE-OVER-SANDS,LA11 7DJ,01539 761352,54.187966,-2.915665
A82055,ASPATRIA MEDICAL GROUP,North East and Yorkshire,QHM,WIGTON,CA7 3HH,01697 320209,54.762157,-3.337948
A82062,ATKINSON HEALTH CENTRE,North West,QE1,BARROW-IN-FURNESS,LA14 2LB,01229 822205,54.109942,-3.224779
A82064,WESTCROFT HOUSE SURGERY,North East and Yorkshire,QHM,EGREMONT,CA22 2DB,01946 820348,54.483155,-3.528594
A82068,ULVERSTON COMMUNITY HEALTH CENTRE,North West,QE1,ULVERSTON,LA12 7BT,01229 484100,54.198891,-3.097833
A82070,ST. MARY'S SURGERY,North West,QE1,WINDERMERE,LA23 1BA,01539 488484,54.380773,-2.90884
A82071,BURNETT EDGAR MEDICAL CTR,North West,QE1,BARROW-IN-FURNESS,LA14 3HY,01229 474526,54.107131,-3.255073
A82072,RISEDALE SURGERY,North West,QE1,BARROW-IN-FURNESS,LA14 2LB,01229 402999,54.109942,-3.224779
A82075,MANSION HOUSE SURGERY,North East and Yorkshire,QHM,WHITEHAVEN,CA28 7BU,01946 693660,54.545953,-3.588422
A82608,SEDBERGH MEDICAL PRACTICE,North West,QE1,SEDBERGH,LA10 5DL,01539 718191,54.322391,-2.535271
A82617,KIRKOSWALD SURGERY,North East and Yorkshire,QHM,PENRITH,CA10 1DQ,01768 898560,54.763777,-2.692582
A82620,GLENRIDDING HEALTH CENTRE,North East and Yorkshire,QHM,PENRITH,CA11 0PD,01768 482297,54.544383,-2.951274
A82629,THE FAMILY PRACTICE,North West,QE1,BARROW-IN-FURNESS,LA14 5SL,01229 402900,54.116763,-3.229279
A82631,COURT THORN SURGERY,North East and Yorkshire,QHM,CARLISLE,CA4 0HP,01697 473548,54.801834,-2.826253
A82646,LONGTOWN MEDICAL CENTRE,North East and Yorkshire,QHM,CARLISLE,CA6 5XA,01228 791328,55.010511,-2.96428
A82647,CARTMEL SURGERY,North West,QE1,GRANGE-OVER-SANDS,LA11 6PH,01539 536366,54.199174,-2.946985
A82650,HAVERTHWAITE SURGERY,North West,QE1,ULVERSTON,LA12 8AL,01539 531619,54.249762,-2.999729
A82651,DUDDON VALLEY MEDICAL PRACTICE,North West,QE1,KIRKBY-IN-FURNESS,LA17 7TE,01229 889247,54.232419,-3.184683
A82654,WARWICK SQUARE GROUP PRACTICE,North East and Yorkshire,QHM,CARLISLE,CA1 1LB,01228 536561,54.893141,-2.926814
A83001,ST ANDREW'S MEDICAL PRACTICE,North East and Yorkshire,QHM,SPENNYMOOR,DL16 6QA,01388 817777,54.699644,-1.598223
A83003,WILLINGTON MEDICAL GROUP,North East and Yorkshire,QHM,CROOK,DL15 0EQ,01388 742500,54.710285,-1.694347
A83005,WHINFIELD MEDICAL PRACTICE,North East and Yorkshire,QHM,DARLINGTON,DL1 3RT,01325 481321,54.546281,-1.525004
A83006,ORCHARD COURT SURGERY,North East and Yorkshire,QHM,DARLINGTON,DL3 6HZ,01325 465285,54.532373,-1.566657
A83007,BLACKHALL AND PETERLEE PRACTICE,North East and Yorkshire,QHM,HARTLEPOOL,TS27 4LQ,0191 5864331,54.746911,-1.289751
A83008,HALLGARTH SURGERY,North East and Yorkshire,QHM,SHILDON,DL4 2HP,01388 772662,54.634893,-1.643649
A83009,BRIDGE END SURGERY,North East and Yorkshire,QHM,CHESTER LE STREET,DH3 3SL,0191 3883236,54.859312,-1.573492
A83010,MOORLANDS SURGERY,North East and Yorkshire,QHM,DARLINGTON,DL3 9JP,01325 469168,54.534227,-1.577594
A83011,CLAYPATH & UNIVERSITY MEDICAL GROUP,North East and Yorkshire,QHM,DURHAM,DH1 1QW,0191 3746888,54.778709,-1.567171
A83012,WILLIAM BROWN CENTRE,North East and Yorkshire,QHM,PETERLEE,SR8 5TW,01915 391060,54.758004,-1.331435
A83013,NEASHAM ROAD SURGERY,North East and Yorkshire,QHM,DARLINGTON,DL1 4YL,01325 461128,54.517268,-1.542657
A83014,BELMONT & SHERBURN MEDICAL GROUP,North East and Yorkshire,QHM,DURHAM,DH1 2QW,0191 3009661,54.786157,-1.528172
A83015,STATION VIEW MEDICAL CENTRE,North East and Yorkshire,QHM,BISHOP AUCKLAND,DL14 6AB,01388 452711,54.656611,-1.678241
A83016,TANFIELD VIEW MEDICAL GROUP,North East and Yorkshire,QHM,STANLEY,DH9 8AD,01207 232384,54.869947,-1.701385
A83018,CONSETT MEDICAL CENTRE,North East and Yorkshire,QHM,CONSETT,DH8 5YA,01207 583400,54.85132,-1.827769
A83020,NORTH HOUSE SURGERY,North East and Yorkshire,QHM,CROOK,DL15 9HU,01388 762945,54.716993,-1.747262
A83021,AUCKLAND MEDICAL GROUP,North East and Yorkshire,QHM,BISHOP AUCKLAND,DL14 6RP,01388 602728,54.648094,-1.679006
A83022,THE MEDICAL GROUP,North East and Yorkshire,QHM,DURHAM,DH7 8NH,0191 3780651,54.748305,-1.628922
A83023,STANLEY MEDICAL GROUP,North East and Yorkshire,QHM,STANLEY,DH9 0AB,01207 285800,54.870038,-1.698065
A83024,WEST RAINTON SURGERY,North East and Yorkshire,QHM,HOUGHTON LE SPRING,DH4 6RQ,0191 5843809,54.81111,-1.504994
A83025,BISHOPGATE MEDICAL CENTRE,North East and Yorkshire,QHM,BISHOP AUCKLAND,DL14 7EJ,01388 660990,54.659113,-1.676237
A83026,SACRISTON MEDICAL CENTRE,North East and Yorkshire,QHM,DURHAM,DH7 6JW,0191 3710232,54.81962,-1.628363
A83027,COXHOE MEDICAL PRACTICE,North East and Yorkshire,QHM,DURHAM,DH6 4DH,0191 3770215,54.714682,-1.504367
A83028,MIDDLE CHARE MEDICAL GROUP,North East and Yorkshire,QHM,CHESTER LE STREET,DH3 3QD,0191 5947654,54.855645,-1.573126
A83029,GREAT LUMLEY SURGERY,North East and Yorkshire,QHM,CHESTER LE STREET,DH3 4LE,0191 3885600,54.837257,-1.543131
A83030,DUNELM MEDICAL PRACTICE,North East and Yorkshire,QHM,DURHAM,DH7 7DG,0191 3732077,54.783437,-1.636142
A83031,CARMEL MEDICAL PRACTICE,North East and Yorkshire,QHM,DARLINGTON,DL3 8SQ,01325 520794,54.527924,-1.579281
A83032,WOODVIEW MEDICAL PRACTICE,North East and Yorkshire,QHM,BISHOP AUCKLAND,DL13 5AF,01388 718202,54.612781,-1.80411
A83033,PELTON & FELLROSE MEDICAL GROUP,North East and Yorkshire,QHM,CHESTER LE STREET,DH2 1HS,0191 3700500,54.873325,-1.60356
A83034,BLACKETTS MEDICAL PRACTICE,North East and Yorkshire,QHM,DARLINGTON,DL3 7JR,01325 380640,54.527232,-1.559016
A83035,THE WEARDALE PRACTICE,North East and Yorkshire,QHM,BISHOP AUCKLAND,DL13 2XD,01388 528555,54.746013,-2.002665
A83036,CHASTLETON MEDICAL GROUP,North East and Yorkshire,QHM,DURHAM,DH1 5BH,0191 3846171,54.795763,-1.587147
A83037,BEWICK CRESCENT SURGERY,North East and Yorkshire,QHM,NEWTON AYCLIFFE,DL5 5LH,01325 316637,54.617559,-1.57187
A83038,CEDARS MEDICAL GROUP,North East and Yorkshire,QHM,NEWCASTLE UPON TYNE,NE16 6HU,01207 272272,54.905577,-1.740454
A83040,CLIFTON COURT MEDICAL PRACTICE,North East and Yorkshire,QHM,DARLINGTON,DL1 5JN,01325 465646,54.521149,-1.549565
A83041,MURTON MEDICAL CENTRE,North East and Yorkshire,QHM,SEAHAM,SR7 9AB,0191 5170170,54.817006,-1.38334
A83043,OLD FORGE SURGERY,North East and Yorkshire,QHM,BARNARD CASTLE,DL12 0QE,01833 640217,54.62305,-2.079766
A83044,THE HORDEN GROUP PRACTICE,North East and Yorkshire,QHM,PETERLEE,SR8 4LD,0191 5864210,54.763742,-1.312924
A83045,FERRYHILL AND CHILTON MEDICAL PRACTICE,North East and Yorkshire,QHM,FERRYHILL,DL17 8JJ,01740 651238,54.689848,-1.556839
A83046,BARNARD CASTLE SURGERY,North East and Yorkshire,QHM,BARNARD CASTLE,DL12 8HT,01833 690707,54.545717,-1.916162
A83047,DENMARK STREET SURGERY,North East and Yorkshire,QHM,DARLINGTON,DL3 0PD,01325 460731,54.538836,-1.552261
A83048,ROCKLIFFE COURT SURGERY,North East and Yorkshire,QHM,DARLINGTON,DL2 2DS,01325 720605,54.483455,-1.544084
A83049,QUEENS ROAD SURGERY,North East and Yorkshire,QHM,CONSETT,DH8 0BW,01207 585890,54.866986,-1.843798
A83050,CESTRIA HEALTH CENTRE,North East and Yorkshire,QHM,CHESTER LE STREET,DH2 3DJ,0191 3887771,54.85173,-1.597698
A83051,MARLBOROUGH SURGERY,North East and Yorkshire,QHM,SEAHAM,SR7 7JE,0191 5812866,54.835804,-1.33549
A83052,BISHOPS CLOSE MEDICAL PRACTICE,North East and Yorkshire,QHM,SPENNYMOOR,DL16 6ED,01388 811455,54.699827,-1.599152
A83054,SKERNE MEDICAL GROUP,North East and Yorkshire,QHM,STOCKTON-ON-TEES,TS21 3BN,01740 620300,54.654043,-1.448812
A83055,CHEVELEY PARK MEDICAL CTR,North East and Yorkshire,QHM,DURHAM,DH1 2UW,0191 3864285,54.785609,-1.52583
A83057,EAST DURHAM MEDICAL GROUP,North East and Yorkshire,QHM,WINGATE,TS28 5PZ,0191 5863859,54.725581,-1.378952
A83060,PINFOLD MEDICAL PRACTICE,North East and Yorkshire,QHM,BISHOP AUCKLAND,DL13 5NX,01388 718230,54.626551,-1.836075
A83061,GAINFORD SURGERY,North East and Yorkshire,QHM,DARLINGTON,DL2 3BE,01325 730204,54.546257,-1.731126
A83066,JUBILEE MEDICAL GROUP,North East and Yorkshire,QHM,NEWTON AYCLIFFE,DL5 4SE,01325 311300,54.629666,-1.580232
A83070,MIDDLETON AND DINSDALE MEDICAL PRACTICE,North East and Yorkshire,QHM,DARLINGTON,DL2 1BY,01325 332022,54.514806,-1.447921
A83071,THE NEW SEAHAM MEDICAL GROUP,North East and Yorkshire,QHM,SEAHAM,SR7 8DY,0191 5817661,54.834804,-1.365336
A83072,LANCHESTER MEDICAL CENTRE,North East and Yorkshire,QHM,DURHAM,DH7 0LP,01207 520877,54.819817,-1.738684
A83073,DRS LAMBERT & NG,North East and Yorkshire,QHM,STANLEY,DH9 7XT,01207 214925,54.857656,-1.737599
A83074,PEASE WAY MEDICAL CENTRE,North East and Yorkshire,QHM,NEWTON AYCLIFFE,DL5 5NH,01325 528000,54.618591,-1.576505
A83075,BYRON MEDICAL PRACTICE,North East and Yorkshire,QHM,SEAHAM,SR7 8LF,0191 3009631,54.836856,-1.348925
A83610,WINGATE MEDICAL PRACTICE INTRAHEALTH,North East and Yorkshire,QHM,WINGATE,TS28 5PZ,01429 838203,54.725581,-1.378952
A83616,BEVAN MEDICAL GROUP,North East and Yorkshire,QHM,DURHAM,DH6 2LQ,0191 5261643,54.760846,-1.388109
A83617,BROWNEY HOUSE SURGERY,North East and Yorkshire,QHM,DURHAM,DH7 9YT,0191 3732860,54.800365,-1.669761
A83618,OAKFIELDS HEALTH GROUP,North East and Yorkshire,QHM,NEWCASTLE UPON TYNE,NE17 7SB,01207 560206,54.903631,-1.816537
A83619,SOUTHDENE MEDICAL CENTRE,North East and Yorkshire,QHM,DURHAM,DH6 2LT,0191 5265818,54.763245,-1.386161
A83622,THE HAVEN SURGERY,North East and Yorkshire,QHM,DURHAM,DH7 0BD,01207 214707,54.825113,-1.712284
A83626,EVENWOOD MEDICAL PRACTICE,North East and Yorkshire,QHM,BISHOP AUCKLAND,DL14 9SU,01388 832236,54.620141,-1.758638
A83627,SILVERDALE FAMILY PRACTICE,North East and Yorkshire,QHM,DURHAM,DH6 2TH,0191 5171055,54.800253,-1.4101
A83634,WEST CORNFORTH MEDICAL CENTRE,North East and Yorkshire,QHM,FERRYHILL,DL17 9LH,01740 656578,54.703235,-1.522756
A83635,BOWBURN MEDICAL CENTRE,North East and Yorkshire,QHM,DURHAM,DH6 5AL,0191 3772495,54.736269,-1.527275
A83636,LEADGATE SURGERY,North East and Yorkshire,QHM,CONSETT,DH8 6DP,01207 583555,54.86057,-1.805999
A83637,VILLAGES MEDICAL GROUP,North East and Yorkshire,QHM,CHESTER LE STREET,DH2 2NJ,01913 873558,54.857871,-1.609802
A83641,PARKGATE SURGERY,North East and Yorkshire,QHM,DARLINGTON,DL1 5LW,01325 735000,54.523284,-1.548615
A83644,ANNFIELD PLAIN SURGERY,North East and Yorkshire,QHM,STANLEY,DH9 7TD,01207 215005,54.856771,-1.735502
A84002,NPC ROTHBURY,North East and Yorkshire,QHM,MORPETH,NE65 7RW,01669 620339,55.306774,-1.913926
A84005,BEDLINGTONSHIRE MED.GROUP,North East and Yorkshire,QHM,BEDLINGTON,NE22 6JX,01670 822695,55.1322,-1.598682
A84006,ALNWICK MEDICAL GROUP,North East and Yorkshire,QHM,ALNWICK,NE66 2NL,01665 656000,55.410077,-1.6967
A84007,NPC PONTELAND,North East and Yorkshire,QHM,NEWCASTLE UPON TYNE,NE20 9SD,01661 825513,55.051757,-1.750046
A84008,BELFORD MEDICAL PRACTICE,North East and Yorkshire,QHM,BELFORD,NE70 7ER,01668 213738,55.595956,-1.826117
A84009,RAILWAY MEDICAL GROUP,North East and Yorkshire,QHM,BLYTH,NE24 1HD,01670 542630,55.128793,-1.514249
A84011,WHITE MEDICAL GROUP,North East and Yorkshire,QHM,NEWCASTLE UPON TYNE,NE20 9SD,01661 822222,55.051757,-1.750046
A84013,THE GABLES MEDICAL GROUP,North East and Yorkshire,QHM,BEDLINGTON,NE22 7DU,01670 829889,55.140816,-1.564444
A84014,MARINE MEDICAL GROUP,North East and Yorkshire,QHM,BLYTH,NE24 1DX,01670 544125,55.127879,-1.51495
A84016,PRUDHOE MEDICAL GROUP,North East and Yorkshire,QHM,PRUDHOE,NE42 5PW,01661 839370,54.961947,-1.853348
A84018,CORBRIDGE HEALTH CENTRE,North East and Yorkshire,QHM,CORBRIDGE,NE45 5LG,01434 632011,54.973869,-2.012711
A84020,GUIDEPOST MEDICAL GROUP,North East and Yorkshire,QHM,CHOPPINGTON,NE62 5RA,01670 822071,55.157585,-1.604124
A84022,NPC AMBLE & BROOMHILL,North East and Yorkshire,QHM,MORPETH,NE65 0HD,01665 710481,55.332602,-1.580519
A84024,BURN BRAE MEDICAL GROUP,North East and Yorkshire,QHM,HEXHAM,NE46 1QJ,01434 603627,54.970445,-2.094672
A84025,NPC CRAMLINGTON,North East and Yorkshire,QHM,CRAMLINGTON,NE23 6QN,01670 713911,55.084488,-1.59153
A84026,WELL CLOSE MEDICAL GROUP,North East and Yorkshire,QHM,BERWICK-UPON-TWEED,TD15 1LL,01289 333240,55.772455,-2.006137
A84027,BELLINGHAM PRACTICE,North East and Yorkshire,QHM,HEXHAM,NE48 2HE,01434 220203,55.143844,-2.258007
A84028,SEATON PARK MEDICAL GROUP,North East and Yorkshire,QHM,ASHINGTON,NE63 0NG,01670 811811,55.171195,-1.561193
A84029,NPC FELTON & WIDDRINGTON,North East and Yorkshire,QHM,MORPETH,NE61 5LX,01670 790229,55.240252,-1.620524
A84030,VILLAGE MEDICAL GROUP,North East and Yorkshire,QHM,CRAMLINGTON,NE23 6US,01670 712821,55.084778,-1.587094
A84031,GREYSTOKE SURGERY,North East and Yorkshire,QHM,MORPETH,NE61 1JX,01670 511393,55.171698,-1.683437
A84033,THE SELE MEDICAL PRACTICE,North East and Yorkshire,QHM,HEXHAM,NE46 1QJ,01434 602237,54.970445,-2.094672
A84034,HALTWHISTLE MEDICAL GROUP,North East and Yorkshire,QHM,HALTWHISTLE,NE49 9AP,01434 320077,54.970077,-2.464848
A84035,RIVERSDALE SURGERY,North East and Yorkshire,QHM,PRUDHOE,NE42 5DQ,01661 853779,54.961372,-1.84562
A84036,NPC CENTRAL NORTHUMBERLAND,North East and Yorkshire,QHM,MORPETH,NE61 1BJ,01670 502333,55.169477,-1.689719
A84037,NETHERFIELD HOUSE,North East and Yorkshire,QHM,CRAMLINGTON,NE23 7EF,0191 2370643,55.063989,-1.547851
A84038,FORUM FAMILY PRACTICE,North East and Yorkshire,QHM,CRAMLINGTON,NE23 6QN,01670 713021,55.084488,-1.59153
A84039,GAS HOUSE LANE SURGERY,North East and Yorkshire,QHM,MORPETH,NE61 1JX,01670 513657,55.171698,-1.683437
A84040,HUMSHAUGH & WARK MED GRP,North East and Yorkshire,QHM,HEXHAM,NE46 4BU,01434 681281,55.036042,-2.125352
A84042,SCOTS GAP MEDICAL GROUP,North East and Yorkshire,QHM,MORPETH,NE61 4EG,01670 774216,55.17275,-1.940573
A84044,UNION BRAE & NORHAM PRAC,North East and Yorkshire,QHM,BERWICK UPON TWEED,TD15 2HB,01289 330333,55.766713,-2.011778
A84045,NPC HAYDON BRIDGE & ALLENDALE,North East and Yorkshire,QHM,HEXHAM,NE47 6LA,01434 684216,54.975687,-2.250068
A84047,BRANCH END SURGERY,North East and Yorkshire,QHM,STOCKSFIELD,NE43 7LL,01661 842626,54.947139,-1.897801
A84604,WOOLER HEALTH,North East and Yorkshire,QHM,WOOLER,NE71 6BL,01668 263852,55.546533,-2.018128
A84614,THE ADDERLANE SURGERY,North East and Yorkshire,QHM,PRUDHOE,NE42 5HR,01661 836386,54.962612,-1.845756
A84619,NPC ELSDON AVENUE,North East and Yorkshire,QHM,WHITLEY BAY,NE25 0BW,0191 2372299,55.070627,-1.5259
A85001,FELL TOWER MEDICAL CENTRE,North East and Yorkshire,QHM,GATESHEAD,NE9 5EY,0191 4913322,54.935046,-1.599068
A85002,BENSHAM FAMILY PRACTICE,North East and Yorkshire,QHM,GATESHEAD,NE8 2XB,0191 4776955,54.952789,-1.61705
A85004,LONGRIGG MEDICAL CENTRE,North East and Yorkshire,QHM,GATESHEAD,NE10 8PH,0191 4692173,54.943764,-1.54589
A85005,OXFORD TCE & RAWLING RD MEDICAL GROUP,North East and Yorkshire,QHM,GATESHEAD,NE8 1RQ,0191 4772169,54.954309,-1.606293
A85006,GLENPARK & TEAMS MEDICAL SERVICES,North East and Yorkshire,QHM,GATESHEAD,NE11 9FJ,0191 4604300,54.952972,-1.639079
A85007,FELL COTTAGE SURGERY,North East and Yorkshire,QHM,GATESHEAD,NE9 5XY,0191 4872656,54.938418,-1.594211
A85008,BIRTLEY MEDICAL GROUP,North East and Yorkshire,QHM,CHESTER LE STREET,DH3 2QT,0191 4921022,54.891889,-1.576453
A85009,CROWHALL MEDICAL CENTRE,North East and Yorkshire,QHM,GATESHEAD,NE10 9QG,0191 4699391,54.947997,-1.568137
A85010,CHAINBRIDGE MEDICAL PARTNERSHIP,North East and Yorkshire,QHM,BLAYDON-ON-TYNE,NE21 5AE,0191 4990965,54.964222,-1.71273
A85011,ST. ALBANS MEDICAL GROUP,North East and Yorkshire,QHM,GATESHEAD,NE10 9QG,0191 4692316,54.947997,-1.568137
A85013,MILLENNIUM FAMILY PRACTICE,North East and Yorkshire,QHM,GATESHEAD,NE8 1AD,0191 4783678,54.963062,-1.603724
A85014,CRAWCROOK MEDICAL CENTRE,North East and Yorkshire,QHM,RYTON,NE40 4US,0191 4135473,54.965705,-1.787502
A85016,WREKENTON MEDICAL GROUP,North East and Yorkshire,QHM,GATESHEAD,NE9 7AD,0191 4876129,54.926384,-1.570427
A85017,BEWICK ROAD SURGERY,North East and Yorkshire,QHM,GATESHEAD,NE8 4DP,0191 4772296,54.956406,-1.601666
A85018,OLDWELL SURGERY,North East and Yorkshire,QHM,BLAYDON-ON-TYNE,NE21 4RD,0191 5002023,54.95518,-1.723614
A85019,CENTRAL GATESHEAD MEDICAL GROUP,North East and Yorkshire,QHM,GATESHEAD,NE8 1NB,0191 4772243,54.956486,-1.60432
A85020,WHICKHAM COTTAGE MEDICAL CENTRE,North East and Yorkshire,QHM,NEWCASTLE UPON TYNE,NE16 4PD,0191 4885555,54.945387,-1.677238
A85021,SECOND STREET SURGERY,North East and Yorkshire,QHM,GATESHEAD,NE8 2UR,0191 4772430,54.954651,-1.614924
A85024,CHOPWELL PRIMARY HEALTHCARE CENTRE,North East and Yorkshire,QHM,NEWCASTLE UPON TYNE,NE17 7BU,01207 561736,54.919792,-1.813484
A85026,BEACON VIEW MEDICAL CENTRE,North East and Yorkshire,QHM,GATESHEAD,NE9 6YS,0191 4824000,54.933073,-1.584214
A85611,PELAW MEDICAL PRACTICE,North East and Yorkshire,QHM,GATESHEAD,NE10 0RR,0191 4692337,54.954725,-1.54038
A85614,THE BRIDGES MEDICAL PRACTICE,North East and Yorkshire,QHM,GATESHEAD,NE8 1AD,0191 3009889,54.963062,-1.603724
A85616,HOLLYHURST MEDICAL CENTRE,North East and Yorkshire,QHM,BLAYDON-ON-TYNE,NE21 4RD,0191 4990966,54.95518,-1.723614
A85617,SUNNISIDE SURGERY,North East and Yorkshire,QHM,NEWCASTLE UPON TYNE,NE16 5LP,0191 4883200,54.922943,-1.675093
A86003,SAVILLE MEDICAL GROUP,North East and Yorkshire,QHM,NEWCASTLE UPON TYNE,NE1 8DQ,0191 2324274,54.976102,-1.609612
A86004,PROSPECT MEDICAL CENTRE,North East and Yorkshire,QHM,NEWCASTLE UPON TYNE,NE4 8AY,0191 2260226,54.974192,-1.646202
A86005,WEST FARM SURGERY,North East and Yorkshire,QHM,NEWCASTLE UPON TYNE,NE12 8LS,0191 2662215,55.01207,-1.584072
A86006,ROSEWORTH SURGERY,North East and Yorkshire,QHM,NEWCASTLE UPON TYNE,NE3 1NB,0191 2132392,55.001373,-1.618685
A86008,PARK MEDICAL GROUP,North East and Yorkshire,QHM,NEWCASTLE UPON TYNE,NE3 2PE,0191 2851763,55.013936,-1.645385
A86010,BIDDLESTONE HEALTH GROUP,North East and Yorkshire,QHM,NEWCASTLE UPON TYNE,NE6 5SL,0191 2655755,54.989193,-1.576744
A86011,WALKER MEDICAL GROUP,North East and Yorkshire,QHM,NEWCASTLE UPON TYNE,NE6 3BS,0191 2620444,54.972446,-1.545239
A86012,WEST ROAD MEDICAL CENTRE,North East and Yorkshire,QHM,NEWCASTLE UPON TYNE,NE4 9QB,0191 2822890,54.976216,-1.656276
A86013,DENTON PARK MEDICAL GROUP,North East and Yorkshire,QHM,NEWCASTLE UPON TYNE,NE5 2QW,0191 2295800,54.993115,-1.69874
A86016,LANE END SURGERY,North East and Yorkshire,QHM,NEWCASTLE UPON TYNE,NE7 7XX,0191 2665246,55.008911,-1.577241
A86017,CRUDDAS PARK SURGERY,North East and Yorkshire,QHM,NEWCASTLE UPON TYNE,NE4 7JT,0191 2261414,54.96818,-1.630978
A86018,THE GROVE MEDICAL GROUP,North East and Yorkshire,QHM,NEWCASTLE UPON TYNE,NE3 1NU,0191 2106680,55.002183,-1.6191
A86020,JESMOND HEALTH PARTNERSHIP,North East and Yorkshire,QHM,NEWCASTLE UPON TYNE,NE2 3LD,01912 814588,54.996392,-1.609276
A86021,HOLMSIDE MEDICAL GROUP,North East and Yorkshire,QHM,NEWCASTLE UPON TYNE,NE4 8QB,0191 2734009,54.968974,-1.659977
A86022,PARKWAY MEDICAL GROUP,North East and Yorkshire,QHM,NEWCASTLE UPON TYNE,NE5 1LJ,0191 2671773,54.996847,-1.71514
A86023,BENFIELD PARK MEDICAL GROUP,North East and Yorkshire,QHM,NEWCASTLE UPON TYNE,NE6 4QD,0191 2821010,54.989373,-1.56163
A86024,HEATON ROAD SURGERY,North East and Yorkshire,QHM,NEWCASTLE UPON TYNE,NE6 1SA,0191 2655911,54.97833,-1.579858
A86025,WESTERHOPE MEDICAL GROUP,North East and Yorkshire,QHM,NEWCASTLE UPON TYNE,NE5 2LH,0191 2437000,54.997784,-1.686826
A86026,THROCKLEY PRIMARY CARE CENTRE,North East and Yorkshire,QHM,NEWCASTLE UPON TYNE,NE15 9PA,0191 2641014,54.992889,-1.758867
A86027,NEWCASTLE MEDICAL CENTRE,North East and Yorkshire,QHM,NEWCASTLE UPON TYNE,NE1 7XR,0191 2322973,54.975139,-1.614776
A86028,REGENT MEDICAL CENTRE,North East and Yorkshire,QHM,NEWCASTLE UPON TYNE,NE3 1DQ,0191 2236555,55.009015,-1.622819
A86029,THORNFIELD MEDICAL GROUP,North East and Yorkshire,QHM,NEWCASTLE UPON TYNE,NE6 1SG,0191 2755740,54.977498,-1.583491
A86030,BETTS AVENUE MEDICAL GROUP,North East and Yorkshire,QHM,NEWCASTLE UPON TYNE,NE15 6TQ,0191 2742767,54.973295,-1.675876
A86031,FENHAM HALL SURGERY,North East and Yorkshire,QHM,NEWCASTLE UPON TYNE,NE4 9XD,0191 2743724,54.984458,-1.660239
A86033,BRUNTON PARK,North East and Yorkshire,QHM,NEWCASTLE UPON TYNE,NE3 5NF,0191 2363338,55.026814,-1.627751
A86037,ELSWICK FAMILY PRACTICE,North East and Yorkshire,QHM,NEWCASTLE UPON TYNE,NE4 6SH,0191 2986060,54.969322,-1.640464
A86038,NEWBURN SURGERY,North East and Yorkshire,QHM,NEWCASTLE UPON TYNE,NE15 8LX,0191 2290090,54.985651,-1.743628
A86040,ST. ANTHONY'S HEALTH CENTRE,North East and Yorkshire,QHM,NEWCASTLE UPON TYNE,NE6 2NN,0191 2196100,54.966368,-1.556444
A86041,SWARLAND AVENUE SURGERY,North East and Yorkshire,QHM,NEWCASTLE UPON TYNE,NE7 7TD,0191 2150141,55.006372,-1.578644
A86601,DENTON TURRET MEDICAL CENTRE,North East and Yorkshire,QHM,NEWCASTLE UPON TYNE,NE5 2UY,0191 2741840,54.983935,-1.686401
A87002,NPC NORTH TYNESIDE - SPRING TERRACE,North East and Yorkshire,QHM,NORTH SHIELDS,NE29 0HD,0191 2961588,55.010593,-1.451379
A87004,COLLINGWOOD HEALTH GROUP,North East and Yorkshire,QHM,NORTH SHIELDS,NE29 0SF,0191 2571779,55.0112,-1.456609
A87005,WHITLEY BAY HEALTH CENTRE,North East and Yorkshire,QHM,WHITLEY BAY,NE26 2ND,0191 2531113,55.041417,-1.439973
A87007,STEPHENSON PARK HEALTH GROUP,North East and Yorkshire,QHM,NEWCASTLE UPON TYNE,NE12 9BQ,0191 2599666,55.020362,-1.56758
A87008,MARINE AVENUE MEDICAL CTR,North East and Yorkshire,QHM,WHITLEY BAY,NE26 3LW,0191 2525317,55.044028,-1.456948
A87009,PRIORY MEDICAL GROUP,North East and Yorkshire,QHM,NORTH SHIELDS,NE29 0HT,0191 2570223,55.010039,-1.450136
A87011,BEAUMONT PARK SURGERY,North East and Yorkshire,QHM,WHITLEY BAY,NE25 9XJ,0191 2514548,55.04809,-1.473405
A87012,WIDEOPEN MEDICAL CENTRE,North East and Yorkshire,QHM,NEWCASTLE UPON TYNE,NE13 6LN,0191 2362115,55.048263,-1.624531
A87013,BEWICKE MEDICAL CENTRE,North East and Yorkshire,QHM,WALLSEND,NE28 0AD,0191 2623036,54.996639,-1.49976
A87016,THE VILLAGE GREEN SURGERY,North East and Yorkshire,QHM,WALLSEND,NE28 6BB,0191 2958500,54.996316,-1.529292
A87017,WOODLANDS PARK HEALTH CTR,North East and Yorkshire,QHM,NEWCASTLE UPON TYNE,NE13 6JJ,0191 2362366,55.046147,-1.628839
A87020,BRIDGE AND MONKSEATON MEDICAL PRACTICE,North East and Yorkshire,QHM,WHITLEY BAY,NE25 9PH,0191 2521616,55.036765,-1.472834
A87022,NORTHUMBERLAND PARK MEDICAL GROUP,North East and Yorkshire,QHM,NEWCASTLE UPON TYNE,NE27 0HJ,0191 2537892,55.03768,-1.506714
A87029,HADRIAN HEALTH CENTRE,North East and Yorkshire,QHM,WALLSEND,NE28 8QU,01913 002707,54.992013,-1.536641
A87030,REDBURN PARK MEDICAL CENTRE,North East and Yorkshire,QHM,NORTH SHIELDS,NE29 6HT,0191 2961456,55.000928,-1.474788
A87612,WELLSPRING MEDICAL PRACT.,North East and Yorkshire,QHM,NEWCASTLE UPON TYNE,NE12 6HS,0191 2164920,55.037297,-1.56408
A87615,MALLARD MEDICAL PRACTICE,North East and Yorkshire,QHM,NEWCASTLE UPON TYNE,NE12 6HS,0191 2160061,55.037297,-1.56408
A88001,VICTORIA MEDICAL CENTRE,North East and Yorkshire,QHM,HEBBURN,NE31 1NU,0191 4832106,54.973937,-1.521601
A88002,FARNHAM MEDICAL CTR.,North East and Yorkshire,QHM,SOUTH SHIELDS,NE33 4QY,0191 4554748,54.975584,-1.438077
A88003,MARSDEN MEDICAL GROUP,North East and Yorkshire,QHM,SOUTH SHIELDS,NE34 6RE,0191 2832861,54.980472,-1.40015
A88004,MAYFIELD MEDICAL GROUP,North East and Yorkshire,QHM,JARROW,NE32 5SE,0191 4897183,54.977889,-1.496462
A88005,WENLOCK ROAD SURGERY,North East and Yorkshire,QHM,SOUTH SHIELDS,NE34 9BP,0191 4560463,54.972643,-1.45524
A88006,TALBOT MEDICAL CENTRE,North East and Yorkshire,QHM,SOUTH SHIELDS,NE34 0BX,0191 4553867,54.972932,-1.441738
A88008,TRINITY MEDICAL CENTRE,North East and Yorkshire,QHM,SOUTH SHIELDS,NE33 5DU,0191 4560053,54.987701,-1.436798
A88009,DR THORNILEY-WALKER & PARTNERS,North East and Yorkshire,QHM,BOLDON COLLIERY,NE35 9AN,0191 5193000,54.94977,-1.460717
A88010,ALBERT ROAD SURGERY,North East and Yorkshire,QHM,JARROW,NE32 5AG,0191 3009659,54.978075,-1.491507
A88012,ELLISON VIEW SURGERY,North East and Yorkshire,QHM,HEBBURN,NE31 1NU,0191 2831610,54.973937,-1.521601
A88013,CENTRAL SURGERY,North East and Yorkshire,QHM,SOUTH SHIELDS,NE34 8PS,0191 4554621,54.971299,-1.415314
A88014,WEST VIEW SURGERY,North East and Yorkshire,QHM,SOUTH SHIELDS,NE33 4JP,0191 2834820,54.984988,-1.431179
A88015,ST GEORGE & RIVERSIDE MEDICAL PRACTICE,North East and Yorkshire,QHM,SOUTH SHIELDS,NE33 5DU,0191 4555958,54.987701,-1.436798
A88016,COLLIERY COURT MEDICAL GROUP,North East and Yorkshire,QHM,BOLDON COLLIERY,NE35 9AN,0191 5190077,54.94977,-1.460717
A88022,THE GLEN MEDICAL GROUP,North East and Yorkshire,QHM,HEBBURN,NE31 1NU,0191 2832250,54.973937,-1.521601
A88023,WHITBURN SURGERY,North East and Yorkshire,QHM,SUNDERLAND,SR6 7EE,0191 5293039,54.952803,-1.364681
A88025,THE G.P.SUITE,North East and Yorkshire,QHM,JARROW,NE32 3UX,0191 4028078,54.980665,-1.49199
A88601,IMEARY MEDICAL GROUP,North East and Yorkshire,QHM,SOUTH SHIELDS,NE33 4JP,0191 4563824,54.984988,-1.431179
A88608,RAVENSWORTH SURGERY,North East and Yorkshire,QHM,SOUTH SHIELDS,NE33 3ET,0191 4552093,54.988389,-1.420598
A88613,EAST WING PRACTICE,North East and Yorkshire,QHM,JARROW,NE32 3UX,0191 4028075,54.980665,-1.49199
A89001,DEERNESS PARK MEDICAL GROUP,North East and Yorkshire,QHM,SUNDERLAND,SR2 8AD,0191 5658849,54.89995,-1.372764
A89002,RIVERVIEW SURGERY,North East and Yorkshire,QHM,SUNDERLAND,SR1 2HJ,0191 5673393,54.905525,-1.373254
A89004,HETTON GROUP PRACTICE,North East and Yorkshire,QHM,HOUGHTON LE SPRING,DH5 9EZ,0191 5261177,54.825356,-1.449129
A89005,VILLETTE SURGERY,North East and Yorkshire,QHM,SUNDERLAND,SR2 8AX,0191 5679361,54.897475,-1.368436
A89006,WEARSIDE MEDICAL PRACTICE,North East and Yorkshire,QHM,SUNDERLAND,SR4 7XF,0191 5689510,54.904182,-1.410345
A89007,PALLION FAMILY PRACTICE,North East and Yorkshire,QHM,SUNDERLAND,SR4 7XF,0191 5674673,54.904182,-1.410345
A89008,RED HOUSE MEDICAL CENTRE,North East and Yorkshire,QHM,SUNDERLAND,SR5 5PS,0191 5375700,54.925465,-1.424077
A89009,HERRINGTON MEDICAL CENTRE,North East and Yorkshire,QHM,HOUGHTON LE SPRING,DH4 4LE,0191 5842632,54.865694,-1.48334
A89010,THE STEPHENSON MEDICAL PRACTICE,North East and Yorkshire,QHM,WASHINGTON,NE37 2PU,0191 4162578,54.913419,-1.524877
A89011,VILLAGE SURGERY PARTNERSHIP,North East and Yorkshire,QHM,SUNDERLAND,SR3 2AN,0191 5212282,54.870962,-1.40723
A89012,GALLERIES MEDICAL PRACTICE,North East and Yorkshire,QHM,WASHINGTON,NE38 7NQ,0191 5435555,54.898823,-1.531254
A89013,THE NEW CITY MEDICAL GROUP,North East and Yorkshire,QHM,SUNDERLAND,SR1 2QB,0191 5675571,54.904436,-1.376609
A89015,"FULWELL MEDICAL CENTRE,",North East and Yorkshire,QHM,SUNDERLAND,SR6 8DZ,0191 5483635,54.930494,-1.383025
A89016,ST BEDE MEDICAL CENTRE,North East and Yorkshire,QHM,SUNDERLAND,SR6 0QQ,0191 5675335,54.913844,-1.378179
A89017,MILLFIELD MEDICAL GROUP,North East and Yorkshire,QHM,SUNDERLAND,SR4 7AF,0191 5679179,54.906923,-1.395769
A89018,ASHBURN MEDICAL CENTRE,North East and Yorkshire,QHM,SUNDERLAND,SR1 2HJ,0191 5671035,54.905525,-1.373254
A89019,BRIDGE VIEW MEDICAL GROUP,North East and Yorkshire,QHM,SUNDERLAND,SR5 2LT,0191 5163940,54.919462,-1.401838
A89020,FORGE MEDICAL PRACTICE,North East and Yorkshire,QHM,SUNDERLAND,SR4 6QE,0191 5109393,54.910071,-1.412708
A89021,KEPIER MEDICAL PRACTICE,North East and Yorkshire,QHM,HOUGHTON LE SPRING,DH4 5EQ,0191 5842106,54.845059,-1.478636
A89022,CONCORD MEDICAL PRACTICE,North East and Yorkshire,QHM,WASHINGTON,NE37 2PU,0191 4173557,54.913419,-1.524877
A89023,"HOUGHTON MEDICAL GROUP,",North East and Yorkshire,QHM,HOUGHTON LE SPRING,DH4 4DN,0191 5842154,54.841762,-1.468479
A89024,THE BROADWAY MEDICAL PRACTICE,North East and Yorkshire,QHM,SUNDERLAND,SR3 4HG,0191 5229908,54.890248,-1.422194
A89025,SUNDERLAND GP ALLIANCE MEDICAL PRACTICE,North East and Yorkshire,QHM,WASHINGTON,NE38 7NQ,0191 4166130,54.898823,-1.531254
A89026,NEW WASHINGTON MEDICAL GROUP,North East and Yorkshire,QHM,WASHINGTON,NE37 2PU,0191 4155656,54.913419,-1.524877
A89027,SPRINGWELL MEDICAL GROUP,North East and Yorkshire,QHM,SUNDERLAND,SR3 4HG,0191 5282727,54.890248,-1.422194
A89028,GRANGEWOOD SURGERY,North East and Yorkshire,QHM,HOUGHTON LE SPRING,DH4 4RB,0191 3852898,54.866432,-1.498755
A89030,WESTBOURNE MEDICAL GROUP,North East and Yorkshire,QHM,HOUGHTON LE SPRING,DH4 4RW,0191 3852512,54.866877,-1.495478
A89031,HYLTON MEDICAL GROUP,North East and Yorkshire,QHM,SUNDERLAND,SR4 7XF,0191 5658598,54.904182,-1.410345
A89032,NEW SILKSWORTH MEDICAL PRACTICE,North East and Yorkshire,QHM,SUNDERLAND,SR3 2AN,0191 5210252,54.870962,-1.40723
A89034,PARK LANE PRACTICE,North East and Yorkshire,QHM,SUNDERLAND,SR2 7BA,0191 5676828,54.901313,-1.384391
A89035,SOUTHLANDS MEDICAL GROUP,North East and Yorkshire,QHM,SUNDERLAND,SR2 0RY,0191 5210210,54.871568,-1.368857
A89036,CASTLETOWN MEDICAL CENTRE,North East and Yorkshire,QHM,SUNDERLAND,SR5 3EX,0191 5495113,54.91335,-1.450862
A89040,MONKWEARMOUTH HEALTH CENTRE,North East and Yorkshire,QHM,SUNDERLAND,SR6 0AB,0191 5674293,54.913143,-1.381668
A89041,HAPPY HOUSE SURGERY,North East and Yorkshire,QHM,SUNDERLAND,SR3 4BY,0191 5282222,54.88502,-1.422799
A89614,SUNDERLAND GP ALLIANCE SOUTH HYLTON SURG,North East and Yorkshire,QHM,SUNDERLAND,SR4 0LS,0191 5341007,54.904232,-1.449629
A89616,RICKLETON MEDICAL CENTRE,North East and Yorkshire,QHM,WASHINGTON,NE38 9EH,0191 4150576,54.880202,-1.547508
A89617,I J HEALTHCARE,North East and Yorkshire,QHM,WASHINGTON,NE38 9AB,0191 4161641,54.881048,-1.531367
A89623,CHESTER SURGERY,North East and Yorkshire,QHM,SUNDERLAND,SR4 7TU,0191 5673597,54.901082,-1.406788
B81003,BEACON MEDICAL,North East and Yorkshire,QOQ,CLEETHORPES,DN35 8EB,01472 691033,53.557025,-0.037668
B81004,"EASTGATE MEDICAL GROUP, HORNSEA",North East and Yorkshire,QOQ,HORNSEA,HU18 1LP,01964 530350,53.915298,-0.168259
B81005,THE CENTRAL SURGERY BARTON,North East and Yorkshire,QOQ,BARTON-UPON-HUMBER,DN18 5ER,01652 636600,53.684255,-0.43945
B81007,WINTERTON MEDICAL PRACTICE,North East and Yorkshire,QOQ,SCUNTHORPE,DN15 9TA,01724 732202,53.652531,-0.606881
B81008,HULL FAMILY PRACTICE,North East and Yorkshire,QOQ,HULL,HU9 2LJ,01482 320046,53.754966,-0.30901
B81009,MARKET WEIGHTON GROUP PRACTICE,North East and Yorkshire,QOQ,YORK,YO43 3FF,01430 875353,53.864923,-0.674793
B81011,KINGSTON HEALTH (HULL),North East and Yorkshire,QOQ,HULL,HU3 5QE,01482 354933,53.742031,-0.384664
B81012,DR AP KUMAR,North East and Yorkshire,QOQ,GRIMSBY,DN31 3AE,01472 721610,53.573306,-0.058663
B81013,MONTAGUE MEDICAL PRACTICE,North East and Yorkshire,QOQ,GOOLE,DN14 6JD,01405 762830,53.707051,-0.872904
B81015,CLEE HEALTH GROUP,North East and Yorkshire,QOQ,CLEETHORPES,DN35 7XE,01472 697257,53.566248,-0.041439
B81016,PELHAM MEDICAL GROUP,North East and Yorkshire,QOQ,GRIMSBY,DN31 1QZ,01472 353303,53.563229,-0.091679
B81017,THE QUAYS MEDICAL PRACTICE,North East and Yorkshire,QOQ,HULL,HU1 3SA,01482 344880,53.746241,-0.342102
B81018,ORCHARD 2000 GROUP,North East and Yorkshire,QOQ,HULL,HU6 9BS,01482 854552,53.786392,-0.370028
B81020,THE SUTTON MANOR SURGERY,North East and Yorkshire,QOQ,HULL,HU7 4PT,01482 826457,53.785779,-0.315301
B81022,CAMBRIDGE AVENUE & MESSINGHAM MC,North East and Yorkshire,QOQ,SCUNTHORPE,DN16 3LG,01724 842415,53.558384,-0.651853
B81024,WILLERBY AND SWANLAND SURGERY,North East and Yorkshire,QOQ,HULL,HU10 7JR,01482 652652,53.740089,-0.433515
B81025,HOLDERNESS HEALTH,North East and Yorkshire,QOQ,WITHERNSEA,HU19 2PZ,03333 324242,53.728739,0.034928
B81026,ANCORA MEDICAL PRACTICE,North East and Yorkshire,QOQ,SCUNTHORPE,DN16 2AB,01724 842244,53.570935,-0.65529
B81027,ST ANDREWS SURGERY,North East and Yorkshire,QOQ,HULL,HU3 4BB,01482 336810,53.735566,-0.361958
B81029,THE SNAITH AND RAWCLIFFE MEDICAL GROUP,North East and Yorkshire,QOQ,GOOLE,DN14 9DY,01405 863196,53.689306,-1.024417
B81030,SLC MEDICAL GROUP,North East and Yorkshire,QOQ,GRIMSBY,DN33 3JF,01472 279500,53.536424,-0.094605
B81031,WOODFIELD MEDICAL,North East and Yorkshire,QOQ,GRIMSBY,DN34 4GB,01472 254600,53.56446,-0.112583
B81032,WILBERFORCE SURGERY,North East and Yorkshire,QOQ,HULL,HU1 3SA,01482 344265,53.746241,-0.342102
B81034,LEVEN & BEEFORD MEDICAL PRACTICE,North East and Yorkshire,QOQ,BEVERLEY,HU17 5NL,01964 542155,53.890908,-0.31295
B81035,THE AVENUES MEDICAL CENTRE,North East and Yorkshire,QOQ,KINGSTON UPON HULL,HU5 3TJ,01482 343614,53.755653,-0.374221
B81036,POCKLINGTON GROUP PRACTICE,North East and Yorkshire,QOQ,YORK,YO42 2BS,01759 302500,53.92375,-0.780688
B81037,THE PARK SURGERY,North East and Yorkshire,QOQ,DRIFFIELD,YO25 6EB,01377 272747,54.009311,-0.43939
B81038,THE OAKS MEDICAL CENTRE,North East and Yorkshire,QOQ,HULL,HU4 6RF,01482 354251,53.73196,-0.395101
B81039,THE ROXTON PRACTICE,North East and Yorkshire,QOQ,IMMINGHAM,DN40 1JW,01469 572058,53.618771,-0.205325
B81040,MARFLEET GROUP PRACTICE,North East and Yorkshire,QOQ,HULL,HU9 5HH,01482 701834,53.756006,-0.265996
B81041,GILBERDYKE HEALTH CENTRE,North East and Yorkshire,QOQ,BROUGH,HU15 2UL,01430 440225,53.754538,-0.731672
B81043,SOUTH AXHOLME PRACTICE,North East and Yorkshire,QOQ,DONCASTER,DN9 1EP,01427 871380,53.526186,-0.822226
B81045,ASHBY TURN PRIMARY CARE PARTNERS,North East and Yorkshire,QOQ,SCUNTHORPE,DN16 2UT,01724 842051,53.565435,-0.653819
B81046,THE BRIDGE GROUP PRACTICE,North East and Yorkshire,QOQ,HULL,HU6 9BX,01482 857190,53.787575,-0.375766
B81047,WOLSELEY MEDICAL CENTRE,North East and Yorkshire,QOQ,HULL,HU3 1DS,01482 335300,53.746195,-0.35507
B81048,MODALITY PARTNERSHIP (HULL),North East and Yorkshire,QOQ,HULL,HU5 2NT,01482 344100,53.765008,-0.356261
B81051,OLD FIRE STATION SURGERY,North East and Yorkshire,QOQ,BEVERLEY,HU17 8JW,01482 862236,53.840887,-0.435185
B81054,CLIFTON HOUSE MEDICAL CENTRE,North East and Yorkshire,QOQ,HULL,HU5 2ST,01482 341423,53.759516,-0.34971
B81061,THE RIDINGS MEDICAL GROUP,North East and Yorkshire,QOQ,BROUGH,HU15 1AY,01482 668668,53.728941,-0.567628
B81063,BRIDGE STREET SURGERY,North East and Yorkshire,QOQ,BRIGG,DN20 8NT,01652 657779,53.551705,-0.495124
B81064,CHURCH LANE MEDICAL CENTRE,North East and Yorkshire,QOQ,SCUNTHORPE,DN15 7AN,01724 853838,53.58548,-0.661778
B81068,BARTHOLOMEW MEDICAL GROUP,North East and Yorkshire,QOQ,GOOLE,DN14 6RU,01405 767711,53.714859,-0.875483
B81069,DRS REDDY AND NUNN,North East and Yorkshire,QOQ,BRIDLINGTON,YO16 4LZ,01262 670686,54.084715,-0.201064
B81074,CITY HEALTH PRACTICE LTD,North East and Yorkshire,QOQ,HULL,HU9 2LR,01482 335560,53.756562,-0.306823
B81075,HASTINGS MEDICAL CENTRE,North East and Yorkshire,QOQ,HULL,HU5 5BE,01482 351219,53.749862,-0.393433
B81082,NORTH BEVERLEY MEDICAL CENTRE,North East and Yorkshire,QOQ,BEVERLEY,HU17 7JY,01482 882546,53.858015,-0.439017
B81085,HAXBY GROUP HULL,North East and Yorkshire,QOQ,HULL,HU7 3JQ,01482 888800,53.802041,-0.352901
B81087,BIRKWOOD MEDICAL CENTRE,North East and Yorkshire,QOQ,GRIMSBY,DN34 5DX,01472 582700,53.55743,-0.105227
B81088,HOWDEN MEDICAL PRACTICE,North East and Yorkshire,QOQ,GOOLE,DN14 7DD,01430 430318,53.744195,-0.869408
B81090,THE OSWALD ROAD MEDICAL SURGERY,North East and Yorkshire,QOQ,SCUNTHORPE,DN15 7PG,01724 843168,53.588137,-0.6534
B81091,LITTLEFIELD SURGERY,North East and Yorkshire,QOQ,GRIMSBY,DN34 4GB,01472 246100,53.56446,-0.112583
B81092,"THE MEDICAL CENTRE, DRIFFIELD",North East and Yorkshire,QOQ,DRIFFIELD,YO25 6UH,01377 243055,54.006277,-0.439687
B81097,DELTA HEALTHCARE,North East and Yorkshire,QOQ,HULL,HU9 3JA,01482 335234,53.764302,-0.292842
B81099,THE KIRTON LINDSEY AND SCOTTER SURGERY,North East and Yorkshire,QOQ,GAINSBOROUGH,DN21 4PQ,01652 648214,53.474111,-0.594076
B81100,DR AC MILNER,North East and Yorkshire,QOQ,HULL,HU10 6QJ,01482 658918,53.748515,-0.43434
B81101,GREENGATES MEDICAL GROUP,North East and Yorkshire,QOQ,BEVERLEY,HU17 0HB,01482 881517,53.844362,-0.418502
B81104,CAMPUS HEALTH CENTRE,North East and Yorkshire,QOQ,HULL,HU5 2EG,01482 492219,53.768814,-0.368372
B81108,DR A SINHA,North East and Yorkshire,QOQ,GRIMSBY,DN31 2BH,01472 344989,53.567843,-0.108808
B81109,RIVERSIDE SURGERY,North East and Yorkshire,QOQ,BRIGG,DN20 8AS,01652 650131,53.553605,-0.491827
B81112,JAMES ALEXANDER FAMILY PRACTICE,North East and Yorkshire,QOQ,HULL,HU7 4DW,01482 825496,53.787428,-0.321368
B81113,CEDAR MEDICAL PRACTICE,North East and Yorkshire,QOQ,SCUNTHORPE,DN16 2AB,01724 843375,53.570935,-0.65529
B81118,WEST COMMON LANE TEACHING PRACTICE,North East and Yorkshire,QOQ,SCUNTHORPE,DN17 1YH,01724 877744,53.574752,-0.682445
B81119,GOODHEART SURGERY,North East and Yorkshire,QOQ,HULL,HU7 4DW,01482 823377,53.787428,-0.321368
B81606,STIRLING MEDICAL CENTRE (MATHEWS),North East and Yorkshire,QOQ,GRIMSBY,DN31 3AE,01472 721650,53.573306,-0.058663
B81617,CHERRY TREE MEDICAL PRACTICE,North East and Yorkshire,QOQ,SCUNTHORPE,DN15 6HX,01724 292022,53.592443,-0.651828
B81619,PARK VIEW SURGERY,North East and Yorkshire,QOQ,HESSLE,HU13 9AJ,01482 648552,53.729809,-0.435838
B81628,BARNETBY MEDICAL CENTRE,North East and Yorkshire,QOQ,BARNETBY,DN38 6HZ,01652 688203,53.574151,-0.403589
B81631,DRS RAUT AND THOUFEEQ,North East and Yorkshire,QOQ,HULL,HU7 5DD,01482 835880,53.805614,-0.326549
B81635,LAURBEL SURGERY,North East and Yorkshire,QOQ,HULL,HU11 4AR,01482 814121,53.778483,-0.257026
B81645,EAST PARK PRACTICE,North East and Yorkshire,QOQ,HULL,HU1 3SA,01482 344190,53.746241,-0.342102
B81647,WEST TOWN SURGERY,North East and Yorkshire,QOQ,BARTON-UPON-HUMBER,DN18 5PU,01652 660041,53.685901,-0.443659
B81648,THE KILLINGHOLME SURGERY,North East and Yorkshire,QOQ,IMMINGHAM,DN40 3EL,01469 540786,53.62993,-0.26034
B81655,GREENLANDS SURGERY,North East and Yorkshire,QOQ,GRIMSBY,DN31 3AE,01472 220333,53.573306,-0.058663
B81656,RAJ MEDICAL CENTRE,North East and Yorkshire,QOQ,GRIMSBY,DN34 5LP,01472 752300,53.550655,-0.113968
B81663,CORE CARE FAMILY PRACTICE,North East and Yorkshire,QOQ,GRIMSBY,DN31 2BH,01472 255600,53.567843,-0.108808
B81665,HEALING PARTNERSHIP,North East and Yorkshire,QOQ,GRIMSBY,DN41 7JB,01472 280221,53.577732,-0.171869
B81666,DR MITCHELL,North East and Yorkshire,QOQ,NORTH FERRIBY,HU14 3DB,01482 634004,53.720769,-0.503586
B81697,DR P SURESH BABU,North East and Yorkshire,QOQ,GRIMSBY,DN32 9SW,01472 255211,53.557292,-0.06619
B82002,MILLFIELD SURGERY,North East and Yorkshire,QOQ,YORK,YO61 3JR,01347 821557,54.125422,-1.192506
B82004,NIDDERDALE GROUP PRACTICE,North East and Yorkshire,QOQ,HARROGATE,HG3 5AT,01423 711369,54.086629,-1.760943
B82005,PRIORY MEDICAL GROUP,North East and Yorkshire,QOQ,YORK,YO24 3WX,01904 404100,53.949333,-1.129247
B82007,TOWNHEAD SURGERY,North East and Yorkshire,QWO,SETTLE,BD24 9JA,01729 822611,54.070547,-2.276906
B82008,NORTH HOUSE SURGERY,North East and Yorkshire,QOQ,RIPON,HG4 1HL,01765 690666,54.139059,-1.524007
B82010,RIPON SPA SURGERY,North East and Yorkshire,QOQ,RIPON,HG4 2BE,01765 692366,54.136178,-1.527086
B82011,SHERBURN SURGERY,North East and Yorkshire,QOQ,MALTON,YO17 8PH,01944 710226,54.181744,-0.531499
B82012,THE LEEDS ROAD PRACTICE,North East and Yorkshire,QOQ,HARROGATE,HG2 8AY,01423 566636,53.980481,-1.535162
B82013,MOSS HEALTHCARE HARROGATE,North East and Yorkshire,QOQ,HARROGATE,HG1 5JP,01423 560261,53.995554,-1.542163
B82014,KINGSWOOD SURGERY,North East and Yorkshire,QOQ,HARROGATE,HG2 7SA,01423 887733,53.99151,-1.517057
B82016,STRAYSIDE HEALTH,North East and Yorkshire,QOQ,HARROGATE,HG1 5AR,01423 566574,53.996369,-1.529799
B82017,WHITBY GROUP PRACTICE,North East and Yorkshire,QOQ,WHITBY,YO21 1SD,01947 820888,54.485934,-0.623186
B82018,ESCRICK SURGERY,North East and Yorkshire,QOQ,YORK,YO19 6LE,01904 728243,53.880087,-1.046135
B82019,TOPCLIFFE SURGERY,North East and Yorkshire,QOQ,THIRSK,YO7 3RP,01845 577297,54.177803,-1.384712
B82021,DALTON TERRACE SURGERY,North East and Yorkshire,QOQ,YORK,YO24 4DB,01904 658542,53.952276,-1.096911
B82022,GREAT AYTON SURGERY,North East and Yorkshire,QOQ,MIDDLESBROUGH,TS9 6BL,01642 723421,54.48977,-1.132691
B82023,CATTERICK VILLAGE SURGERY,North East and Yorkshire,QOQ,RICHMOND,DL10 7LD,01748 811475,54.37839,-1.632076
B82024,EASTFIELD MEDICAL CENTRE,North East and Yorkshire,QOQ,SCARBOROUGH,YO11 3LJ,01723 582297,54.238911,-0.397567
B82025,DERWENT PRACTICE,North East and Yorkshire,QOQ,MALTON,YO17 9RF,01653 600069,54.1326,-0.797739
B82026,HAXBY GROUP PRACTICE,North East and Yorkshire,QOQ,YORK,YO32 2LL,01904 928008,54.019338,-1.081921
B82027,THE SPA SURGERY,North East and Yorkshire,QOQ,HARROGATE,HG1 5AR,01423 503218,53.996369,-1.529799
B82029,DOCTORS LANE SURGERY,North East and Yorkshire,QOQ,RICHMOND,DL11 7TH,01325 374332,54.496529,-1.684655
B82030,MASHAM & KIRKBY MALZEARD SURGERY,North East and Yorkshire,QOQ,RIPON,HG4 4DZ,01765 658298,54.221894,-1.656043
B82031,SHERBURN GROUP PRACTICE,North East and Yorkshire,QOQ,LEEDS,LS25 6ED,01977 682208,53.798612,-1.253523
B82032,CHURCH LANE SURGERY,North East and Yorkshire,QOQ,YORK,YO51 9BD,01423 322309,54.093564,-1.393648
B82033,PICKERING MEDICAL PRACTICE,North East and Yorkshire,QOQ,PICKERING,YO18 8BL,01751 471296,54.244956,-0.781447
B82034,QUAKERS LANE SURGERY,North East and Yorkshire,QOQ,RICHMOND,DL10 4BB,01748 850440,54.406363,-1.741713
B82035,SCORTON MEDICAL CENTRE,North East and Yorkshire,QOQ,RICHMOND,DL10 6HB,01748 811320,54.39818,-1.614771
B82036,PARK STREET,North East and Yorkshire,QOQ,RIPON,HG4 2AX,01765 692337,54.136464,-1.526899
B82037,FILEY SURGERY,North East and Yorkshire,QOQ,FILEY,YO14 9AE,01723 515881,54.210105,-0.29036
B82038,HAXBY GROUP SCARBOROUGH,North East and Yorkshire,QOQ,SCARBOROUGH,YO11 1UB,01723 360835,54.277326,-0.409732
B82041,BEECH TREE SURGERY,North East and Yorkshire,QOQ,SELBY,YO8 9AJ,01757 703933,53.774959,-1.080535
B82042,LAMBERT MEDICAL CENTRE,North East and Yorkshire,QOQ,THIRSK,YO7 1LU,01845 523157,54.231693,-1.342399
B82044,STOKESLEY SURGERY,North East and Yorkshire,QOQ,MIDDLESBROUGH,TS9 5DY,01642 710748,54.470911,-1.194379
B82045,CENTRAL DALES PRACTICE,North East and Yorkshire,QOQ,HAWES,DL8 3QR,01969 667200,54.304285,-2.197042
B82046,STAITHES SURGERY,North East and Yorkshire,QOQ,SALTBURN-BY-THE-SEA,TS13 5AY,01947 840480,54.553179,-0.794129
B82047,UNITY HEALTH,North East and Yorkshire,QOQ,YORK,YO10 5LA,01904 754900,53.950377,-1.029723
B82049,THIRSK DOCTORS SURGERY,North East and Yorkshire,QOQ,THIRSK,YO7 1LG,01845 440462,54.230949,-1.342795
B82050,MOWBRAY HOUSE SURGERY,North East and Yorkshire,QOQ,NORTHALLERTON,DL7 8FW,01609 760002,54.335643,-1.439156
B82053,DYNELEY HOUSE SURGERY,North East and Yorkshire,QWO,SKIPTON,BD23 2HZ,01756 799311,53.960508,-2.014249
B82054,SCARBOROUGH MEDICAL GROUP,North East and Yorkshire,QOQ,SCARBOROUGH,YO12 6UA,01723 375343,54.296459,-0.441218
B82057,SPRINGBANK SURGERY,North East and Yorkshire,QOQ,YORK,YO26 8BN,01423 330030,54.004037,-1.299166
B82059,CHURCH AVENUE MEDICAL GROUP,North East and Yorkshire,QOQ,HARROGATE,HG1 4HG,01423 564168,54.006036,-1.535762
B82060,EASTGATE MEDICAL GROUP,North East and Yorkshire,QOQ,KNARESBOROUGH,HG5 0AD,01423 788300,54.006811,-1.462821
B82061,BENTHAM MEDICAL PRACTICE,North West,QE1,LANCASTER,LA2 7JP,01524 261202,54.119183,-2.511136
B82063,AYTON AND SNAINTON MEDICAL PRACTICE,North East and Yorkshire,QOQ,SCARBOROUGH,YO13 9JF,01723 863100,54.246064,-0.493657
B82064,TOLLERTON SURGERY,North East and Yorkshire,QOQ,YORK,YO61 1AG,01347 838231,54.071608,-1.223241
B82066,GLEBE HOUSE SURGERY,North East and Yorkshire,QOQ,BEDALE,DL8 2AT,01677 422616,54.285733,-1.593133
B82067,STOCKWELL ROAD SURGERY,North East and Yorkshire,QOQ,KNARESBOROUGH,HG5 0JY,01423 867433,54.012014,-1.466768
B82068,HELMSLEY SURGERY,North East and Yorkshire,QOQ,YORK,YO62 5HD,01439 770288,54.249254,-1.056429
B82069,BEECH HOUSE SURGERY,North East and Yorkshire,QOQ,KNARESBOROUGH,HG5 0UB,01423 542562,54.010851,-1.465898
B82071,THE OLD SCHOOL MEDICAL PRACTICE,North East and Yorkshire,QOQ,YORK,YO23 3UA,01904 706455,53.916163,-1.142404
B82072,THE FRIARY SURGERY,North East and Yorkshire,QOQ,RICHMOND,DL10 4UJ,01748 822306,54.404908,-1.738348
B82073,SOUTH MILFORD SURGERY,North East and Yorkshire,QOQ,LEEDS,LS25 5AA,01977 682202,53.779296,-1.249176
B82074,POSTERNGATE SURGERY,North East and Yorkshire,QOQ,SELBY,YO8 4QH,01757 702561,53.781019,-1.069112
B82075,MAYFORD HOUSE SURGERY,North East and Yorkshire,QOQ,NORTHALLERTON,DL7 8AW,01609 772105,54.328388,-1.446543
B82077,KIRKBYMOORSIDE SURGERY,North East and Yorkshire,QOQ,YORK,YO62 6AR,01751 431254,54.269418,-0.933988
B82078,LEYBURN MEDICAL PRACTICE,North East and Yorkshire,QOQ,LEYBURN,DL8 5EP,01969 622391,54.309299,-1.825591
B82079,STILLINGTON SURGERY,North East and Yorkshire,QOQ,YORK,YO61 1LL,01347 810332,54.103631,-1.108937
B82080,MY HEALTH GROUP,North East and Yorkshire,QOQ,YORK,YO32 5UA,01904 490532,54.038966,-1.034657
B82081,ELVINGTON MEDICAL PRACTICE,North East and Yorkshire,QOQ,YORK,YO41 4DY,01904 608224,53.925017,-0.948837
B82083,YORK MEDICAL GROUP,North East and Yorkshire,QOQ,YORK,YO24 4HD,01904 439100,53.955939,-1.119417
B82086,ESK VALLEY MEDICAL PRACTICE,North East and Yorkshire,QOQ,WHITBY,YO21 2PA,01287 660739,54.46833,-0.90789
B82088,BROOK SQUARE SURGERY,North East and Yorkshire,QOQ,SCARBOROUGH,YO12 7AS,01723 360098,54.281806,-0.409345
B82097,SCOTT ROAD MEDICAL CENTRE,North East and Yorkshire,QOQ,SELBY,YO8 4BL,01757 211750,53.785036,-1.074821
B82098,JORVIK GILLYGATE PRACTICE,North East and Yorkshire,QOQ,YORK,YO1 7NP,01904 405487,53.959151,-1.077864
B82100,FRONT STREET SURGERY,North East and Yorkshire,QOQ,YORK,YO24 3BZ,01904 794141,53.954421,-1.126931
B82101,SLEIGHTS AND SANDSEND MEDICAL PRACTICE,North East and Yorkshire,QOQ,WHITBY,YO22 5DP,01947 810466,54.45202,-0.659661
B82104,HAREWOOD MEDICAL PRACTICE,North East and Yorkshire,QOQ,CATTERICK GARRISON,DL9 3JD,01748 876090,54.376221,-1.721828
B82105,TADCASTER MEDICAL CENTRE,North East and Yorkshire,QOQ,TADCASTER,LS24 8HD,01937 530082,53.885512,-1.258245
B82106,HACKNESS ROAD SURGERY,North East and Yorkshire,QOQ,SCARBOROUGH,YO12 5SD,01723 506706,54.295164,-0.443895
B82609,AMPLEFORTH SURGERY,North East and Yorkshire,QOQ,YORK,YO62 4EF,01439 788215,54.200351,-1.104697
B82619,TERRINGTON SURGERY,North East and Yorkshire,QOQ,YORK,YO60 6PS,01653 648260,54.128925,-0.973697
B82628,HUNMANBY SURGERY,North East and Yorkshire,QOQ,FILEY,YO14 0NN,01723 890280,54.180205,-0.319466
B83002,ILKLEY & WHARFEDALE MEDICAL PRACTICE,North East and Yorkshire,QWO,ILKLEY,LS29 8TQ,01943 604455,53.923319,-1.814804
B83005,THORNBURY MEDICAL PRACTICE,North East and Yorkshire,QWO,BRADFORD,BD3 7HZ,01274 662441,53.802829,-1.710554
B83008,LING HOUSE MEDICAL CENTRE,North East and Yorkshire,QWO,KEIGHLEY,BD21 2JH,01535 605747,53.868351,-1.910396
B83010,PARKLANDS MEDICAL PRACTICE,North East and Yorkshire,QWO,BRADFORD,BD6 2DD,01274 678464,53.76104,-1.78107
B83012,MANOR MEDICAL PRACTICE,North East and Yorkshire,QWO,BRADFORD,BD8 9PB,01274 484111,53.802973,-1.788186
B83014,BINGLEY MEDICAL PRACTICE,North East and Yorkshire,QWO,BINGLEY,BD16 4RP,01274 568383,53.846951,-1.827832
B83015,TONG MEDICAL PRACTICE,North East and Yorkshire,QWO,BRADFORD,BD4 9QA,01274 683331,53.770505,-1.716799
B83016,FARROW MEDICAL CENTRE,North East and Yorkshire,QWO,BRADFORD,BD3 0HX,01274 637031,53.802525,-1.743124
B83018,IDLE MEDICAL CENTRE,North East and Yorkshire,QWO,BRADFORD,BD10 8RU,01274 771999,53.836184,-1.734151
B83019,GRANGE PARK SURGERY,North East and Yorkshire,QWO,ILKLEY,LS29 7HG,01943 862108,53.91271,-1.748112
B83022,BAILDON MEDICAL PRACTICE,North East and Yorkshire,QWO,SHIPLEY,BD17 5NH,01274 581979,53.853081,-1.768931
B83025,DR I M RAJA & PARTNER,North East and Yorkshire,QWO,BRADFORD,BD5 0NX,01274 721924,53.782437,-1.764887
B83026,PRIMROSE SURGERY,North East and Yorkshire,QWO,BRADFORD,BD3 0BS,01274 729602,53.798241,-1.740296
B83028,WIBSEY & QUEENSBURY MED P,North East and Yorkshire,QWO,BRADFORD,BD6 1TD,01274 677457,53.767239,-1.779718
B83029,LOW MOOR SURGERY,North East and Yorkshire,QWO,BRADFORD,BD12 0TH,01274 697600,53.753865,-1.7699
B83031,OAK GLEN SURGERY,North East and Yorkshire,QWO,BINGLEY,BD16 3PA,01274 566617,53.854799,-1.816352
B83032,BRADFORD MOOR PRACTICE,North East and Yorkshire,QWO,BRADFORD,BD3 8QH,01274 663321,53.797849,-1.721853
B83033,MODALITY PARTNERSHIP (AWC),North East and Yorkshire,QWO,KEIGHLEY,BD22 8DH,01535 609249,53.831336,-1.954886
B83034,GRANGE MEDICAL CENTRE,North East and Yorkshire,QWO,BRADFORD,BD7 3AH,01274 957908,53.78762,-1.777441
B83035,HORTON PARK MEDICAL PRACTICE,North East and Yorkshire,QWO,BRADFORD,BD7 3EG,01274 087646,53.785175,-1.772794
B83037,THE WILSDEN MEDICAL PRACTICE,North East and Yorkshire,QWO,BRADFORD,BD15 0NJ,01535 273227,53.818377,-1.86138
B83038,LEYLANDS LANE MEDICAL PRACTICE,North East and Yorkshire,QWO,BRADFORD,BD9 5PZ,01274 770771,53.812597,-1.792542
B83039,THE SALTAIRE & WINDHILL MEDICAL P'SHIP,North East and Yorkshire,QWO,SHIPLEY,BD18 1QB,01274 584223,53.835412,-1.764926
B83041,BOWLING HALL MED PRACTICE,North East and Yorkshire,QWO,BRADFORD,BD4 7SS,01274 224888,53.772829,-1.730893
B83042,ROOLEY LANE MED. CENTRE,North East and Yorkshire,QWO,BRADFORD,BD4 7SS,01274 223118,53.772829,-1.730893
B83045,HOLLYNS HEALTH & WELLBEING,North East and Yorkshire,QWO,BRADFORD,BD14 6NF,01274 880650,53.77918,-1.814543
B83051,BRADFORD STUDENT HEALTH SERVICE,North East and Yorkshire,QWO,BRADFORD,BD5 0HR,01274 371380,53.785338,-1.768362
B83052,KENSINGTON PARTNERSHIP,North East and Yorkshire,QWO,BRADFORD,BD8 9LB,01274 499209,53.801125,-1.785538
B83055,THE RIDGE MEDICAL PRACT.,North East and Yorkshire,QWO,BRADFORD,BD7 3JX,01274 425600,53.78091,-1.779859
B83056,MOORSIDE SURGERY,North East and Yorkshire,QWO,BRADFORD,BD2 3AA,01274 643576,53.809599,-1.730902
B83058,THE AVICENNA MEDICAL PRACTICE,North East and Yorkshire,QWO,BRADFORD,BD3 8QH,01274 664464,53.797849,-1.721853
B83062,ASHCROFT SURGERY,North East and Yorkshire,QWO,BRADFORD,BD10 0JE,01274 612279,53.823092,-1.712131
B83063,AFFINITY CARE,North East and Yorkshire,QWO,SHIPLEY,BD18 3EG,01274 531153,53.83263,-1.781411
B83064,THE ROCKWELL AND WROSE PRACTICE,North East and Yorkshire,QWO,BRADFORD,BD2 1QG,01274 638353,53.823012,-1.744412
B83067,THE SPRINGFIELD SURGERY (BINGLEY),North East and Yorkshire,QWO,BINGLEY,BD16 4RP,01274 567991,53.846951,-1.827832
B83604,THE LISTER SURGERY,North East and Yorkshire,QWO,BRADFORD,BD8 8RA,01274 202495,53.80731,-1.776244
B83611,NEW OTLEY ROAD MEDICAL PRACTICE,North East and Yorkshire,QWO,BRADFORD,BD3 0BS,01274 033888,53.798241,-1.740296
B83614,PICTON MEDICAL CENTRE,North East and Yorkshire,QWO,BRADFORD,BD8 9DW,01274 019605,53.803583,-1.777949
B83620,ADDINGHAM SURGERY,North East and Yorkshire,QWO,ILKLEY,LS29 0LZ,01943 830367,53.943698,-1.881427
B83622,DR IA GILKAR & PARTNERS,North East and Yorkshire,QWO,BRADFORD,BD8 9LB,01274 496433,53.801125,-1.785538
B83624,I G MEDICAL,North East and Yorkshire,QWO,ILKLEY,LS29 8TH,01943 604999,53.923573,-1.816052
B83626,VALLEY VIEW SURGERY,North East and Yorkshire,QWO,BRADFORD,BD2 4RA,01274 299143,53.806806,-1.731907
B83627,FRIZINGHALL MEDICAL CENTRE,North East and Yorkshire,QWO,BRADFORD,BD9 4LH,01274 495577,53.818873,-1.7736
B83628,CLARENDON MEDICAL CENTRE,North East and Yorkshire,QWO,BRADFORD,BD1 3DN,01274 736996,53.79914,-1.757689
B83629,PEEL PARK SURGERY,North East and Yorkshire,QWO,BRADFORD,BD2 4RA,01274 634989,53.806806,-1.731907
B83641,ASHWELL MEDICAL CENTRE,North East and Yorkshire,QWO,BRADFORD,BD8 9DP,01274 490409,53.8038,-1.778616
B83642,THE CITY MEDICAL PRACTICE,North East and Yorkshire,QWO,BRADFORD,BD8 8RA,01274 256213,53.80731,-1.776244
B83653,DR GILKAR,North East and Yorkshire,QWO,BRADFORD,BD5 0NX,01274 731700,53.782437,-1.764887
B83657,BEVAN COMMUNITY BENEFIT SOCIETY,North East and Yorkshire,QWO,BRADFORD,BD1 3LS,01274 322400,53.795473,-1.753217
B83659,PARK GRANGE MEDICAL CENTRE,North East and Yorkshire,QWO,BRADFORD,BD7 2BL,01274 522904,53.789415,-1.775929
B83660,BILTON MEDICAL CENTRE,North East and Yorkshire,QWO,BRADFORD,BD8 8JT,01274 782080,53.798364,-1.769535
B83661,MOOR PARK MEDICAL PRACTICE,North East and Yorkshire,QWO,BRADFORD,BD3 8QH,01274 778400,53.797849,-1.721853
B84001,STATION ROAD SURGERY,North East and Yorkshire,QWO,SOWERBY BRIDGE,HX6 3AB,01422 410433,53.707126,-1.910782
B84003,RYDINGS HALL SURGERY,North East and Yorkshire,QWO,BRIGHOUSE,HD6 1AT,01484 715324,53.703079,-1.782551
B84004,HEBDEN BRIDGE GROUP PRACTICE,North East and Yorkshire,QWO,HEBDEN BRIDGE,HX7 7BZ,01422 415777,53.743686,-2.011563
B84006,TODMORDEN GROUP PRACTICE,North East and Yorkshire,QWO,TODMORDEN,OL14 5RN,01706 811100,53.713666,-2.09216
B84007,BRIG ROYD SURGERY,North East and Yorkshire,QWO,SOWERBY BRIDGE,HX6 4BN,01422 822209,53.675586,-1.939473
B84008,THE NORTHOLME PRACTICE,North East and Yorkshire,QWO,HALIFAX,HX3 8AF,01422 205154,53.725953,-1.80885
B84009,STAINLAND ROAD MEDICAL CENTRE,North East and Yorkshire,QWO,HALIFAX,HX4 8BD,01422 374109,53.685862,-1.857377
B84010,KEIGHLEY ROAD SURGERY,North East and Yorkshire,QWO,HALIFAX,HX2 9LL,01422 247528,53.754254,-1.893909
B84011,CHURCH LANE SURGERY,North East and Yorkshire,QWO,BRIGHOUSE,HD6 1AT,01484 714349,53.703079,-1.782551
B84012,SPRING HALL GROUP PRACTICE,North East and Yorkshire,QWO,HALIFAX,HX1 4JG,01422 349501,53.721078,-1.892901
B84013,PLANE TREES GROUP PRACTICE,North East and Yorkshire,QWO,HALIFAX,HX2 0QL,01422 330860,53.730463,-1.894439
B84014,RASTRICK HEALTH CENTRE,North East and Yorkshire,QWO,BRIGHOUSE,HD6 3NA,01484 710853,53.688832,-1.792179
B84016,BANKFIELD SURGERY,North East and Yorkshire,QWO,ELLAND,HX5 9BA,01422 374662,53.686346,-1.835148
B84019,THE BOULEVARD MEDICAL PRACTICE,North East and Yorkshire,QWO,HALIFAX,HX1 2ES,01422 365533,53.717279,-1.868591
B84021,KING CROSS PRACTICE,North East and Yorkshire,QWO,HALIFAX,HX1 3LW,01422 230730,53.715323,-1.880203
B84612,LISTER LANE SURGERY,North East and Yorkshire,QWO,HALIFAX,HX1 5AX,01422 353956,53.722588,-1.865498
B84613,BEECHWOOD MEDICAL CENTRE,North East and Yorkshire,QWO,HALIFAX,HX2 8AL,01422 305970,53.743259,-1.88117
B84618,CARITAS GROUP PRACTICE,North East and Yorkshire,QWO,HALIFAX,HX3 6EL,01422 557711,53.73022,-1.866944
B84623,LONGROYDE SURGERY,North East and Yorkshire,QWO,BRIGHOUSE,HD6 3HT,01484 721102,53.694061,-1.79073
B85001,PARKVIEW SURGERY,North East and Yorkshire,QWO,CLECKHEATON,BD19 5AP,01274 872200,53.722222,-1.713167
B85002,DEARNE VALLEY HEALTH CENTRE,North East and Yorkshire,QWO,HUDDERSFIELD,HD8 9JL,01484 862793,53.588365,-1.626485
B85004,CALDER VIEW SURGERY,North East and Yorkshire,QWO,DEWSBURY,WF13 1HN,01924 351599,53.689759,-1.634887
B85005,SHEPLEY PRIMARY CARE LIMITED,North East and Yorkshire,QWO,HUDDERSFIELD,HD8 8DJ,01484 602001,53.585743,-1.712202
B85006,ELMWOOD FAMILY DOCTORS,North East and Yorkshire,QWO,HOLMFIRTH,HD9 3TR,01484 943000,53.578378,-1.78331
B85008,BATLEY HEALTH CENTRE SURGERY,North East and Yorkshire,QWO,BATLEY,WF17 5ED,01924 351540,53.715344,-1.636484
B85009,"NORTH ROAD SUITE,RAVENSTHORPE HEALTH CTR",North East and Yorkshire,QWO,DEWSBURY,WF13 3JY,01924 767101,53.677829,-1.661589
B85010,DALTON SURGERY,North East and Yorkshire,QWO,HUDDERSFIELD,HD5 8DY,01484 530068,53.644613,-1.75104
B85012,UNDERCLIFFE SURGERY,North East and Yorkshire,QWO,HECKMONDWIKE,WF16 0HH,01924 403406,53.70724,-1.678183
B85014,BROOKROYD HOUSE,North East and Yorkshire,QWO,HECKMONDWIKE,WF16 0HH,01924 403061,53.70724,-1.678183
B85015,WELLINGTON HOUSE,North East and Yorkshire,QWO,BATLEY,WF17 5DN,01924 669960,53.71479,-1.634565
B85016,MELTHAM ROAD SURGERY,North East and Yorkshire,QWO,HUDDERSFIELD,HD1 3UP,01484 432940,53.631812,-1.798053
B85018,GROVE HOUSE SURGERY,North East and Yorkshire,QWO,BATLEY,WF17 5SS,01924 476363,53.711758,-1.624773
B85019,MIRFIELD HEALTH CENTRE,North East and Yorkshire,QWO,MIRFIELD,WF14 8DU,01924 483440,53.67573,-1.696725
B85020,EIGHTLANDS SURGERY,North East and Yorkshire,QWO,DEWSBURY,WF13 1HN,01924 767303,53.689759,-1.634887
B85021,CLECKHEATON GROUP PRACTICE,North East and Yorkshire,QWO,CLECKHEATON,BD19 3RQ,01274 957846,53.724067,-1.710624
B85022,HONLEY SURGERY,North East and Yorkshire,QWO,HOLMFIRTH,HD9 6AG,01484 303366,53.602401,-1.791937
B85023,THE ALMONDBURY SURGERY,North East and Yorkshire,QWO,HUDDERSFIELD,HD5 8XW,01484 514555,53.631868,-1.751311
B85024,THE WATERLOO PRACTICE,North East and Yorkshire,QWO,HUDDERSFIELD,HD5 9XP,01484 500977,53.645365,-1.73724
B85025,BLACKBURN RD.MEDICAL CTR.,North East and Yorkshire,QWO,BATLEY,WF17 9PL,01924 552200,53.731363,-1.664721
B85026,KIRKBURTON HEALTH CENTRE,North East and Yorkshire,QWO,HUDDERSFIELD,HD8 0SJ,01484 602040,53.608447,-1.701151
B85027,LINDLEY GROUP PRACTICE LTD,North East and Yorkshire,QWO,HUDDERSFIELD,HD3 3DY,01484 516349,53.654322,-1.817449
B85028,THE GRANGE MEDICAL PRACTICE,North East and Yorkshire,QWO,HUDDERSFIELD,HD2 2QA,01484 428282,53.662307,-1.781353
B85030,THE GREENWAY MEDICAL PRACTICE,North East and Yorkshire,QWO,CLECKHEATON,BD19 5AP,01274 399505,53.722222,-1.713167
B85031,LEPTON AND KIRKHEATON SURGERIES,North East and Yorkshire,QWO,HUDDERSFIELD,HD8 0HH,01484 606161,53.633772,-1.710605
B85032,MELTHAM GROUP PRACTICE,North East and Yorkshire,QWO,HOLMFIRTH,HD9 5QQ,01484 347620,53.594316,-1.849419
B85033,THE LINDLEY VILLAGE SURG.,North East and Yorkshire,QWO,HUDDERSFIELD,HD3 3JD,01484 651403,53.661345,-1.825711
B85036,NEW STREET & NETHERTON GROUP PRACTICE,North East and Yorkshire,QWO,HUDDERSFIELD,HD3 4LB,01484 651622,53.637558,-1.828713
B85037,NEWSOME SURGERY LIMITED,North East and Yorkshire,QWO,HUDDERSFIELD,HD4 6JE,01484 514118,53.628938,-1.78408
B85038,THE PADDOCK SURGERY,North East and Yorkshire,QWO,DEWSBURY,WF12 0DH,01924 465343,53.663472,-1.624309
B85041,MOUNT PLEASANT MED CENTRE,North East and Yorkshire,QWO,BATLEY,WF17 7PF,01924 474499,53.707051,-1.637298
B85042,PADDOCK AND LONGWOOD FAMILY PRACTICE,North East and Yorkshire,QWO,HUDDERSFIELD,HD1 4TS,01484 531786,53.642134,-1.805461
B85044,THORNTON LODGE SURGERY,North East and Yorkshire,QWO,HUDDERSFIELD,HD1 3SB,01484 512233,53.637876,-1.796059
B85048,WOODHOUSE HILL SURGERY,North East and Yorkshire,QWO,HUDDERSFIELD,HD2 1DH,01484 533833,53.6667,-1.770978
B85051,FIELDHEAD SURGERY,North East and Yorkshire,QWO,HUDDERSFIELD,HD7 4QQ,01484 654504,53.641358,-1.854229
B85054,COLNE VALLEY GROUP PRACTICE,North East and Yorkshire,QWO,HUDDERSFIELD,HD7 5JN,01484 842652,53.622538,-1.879904
B85055,HEALDS ROAD SURGERY,North East and Yorkshire,QWO,DEWSBURY,WF13 4HT,01924 438222,53.700127,-1.651641
B85058,ROSE MEDICAL PRACTICE,North East and Yorkshire,QWO,HUDDERSFIELD,HD1 5PU,01484 500921,53.648843,-1.791906
B85059,SLAITHWAITE HEALTH CENTRE,North East and Yorkshire,QWO,HUDDERSFIELD,HD7 5AB,01484 846674,53.623561,-1.878389
B85060,GREENHEAD FAMILY DOCTORS,North East and Yorkshire,QWO,HUDDERSFIELD,HD1 5PX,01484 530834,53.649463,-1.792009
B85061,SKELMANTHORPE FAMILY DOCTORS,North East and Yorkshire,QWO,HUDDERSFIELD,HD8 9DA,01484 503515,53.59162,-1.650689
B85062,UNIVERSITY HEALTH CENTRE,North East and Yorkshire,QWO,HUDDERSFIELD,HD1 3AL,01484 430386,53.644166,-1.775154
B85606,THORNHILL LEES MEDICAL CENTRE,North East and Yorkshire,QWO,DEWSBURY,WF12 9DW,01924 461369,53.673566,-1.630153
B85610,OAKLANDS HEALTH CENTRE,North East and Yorkshire,QWO,HOLMFIRTH,HD9 3TQ,01484 689111,53.578311,-1.785787
B85611,DR HANDA & PARTNER,North East and Yorkshire,QWO,HUDDERSFIELD,HD2 1AE,01484 534386,53.663224,-1.776884
B85612,LIVERSEDGE MEDICAL CENTRE,North East and Yorkshire,QWO,LIVERSEDGE,WF15 6DF,01924 407771,53.712863,-1.690655
B85614,CROFT MEDICAL CENTRE,North East and Yorkshire,QWO,HUDDERSFIELD,HD2 2RU,01484 440840,53.659977,-1.785435
B85619,COOK LANE SURGERY,North East and Yorkshire,QWO,HECKMONDWIKE,WF16 9JG,01924 402073,53.710499,-1.676765
B85620,WINDSOR MEDICAL CENTRE,North East and Yorkshire,QWO,DEWSBURY,WF12 7BD,01924 465699,53.69389,-1.622161
B85623,MARSH SURGERY,North East and Yorkshire,QWO,HUDDERSFIELD,HD1 4LE,01484 426044,53.65174,-1.804101
B85634,BIRKBY HEALTH CENTRE,North East and Yorkshire,QWO,HUDDERSFIELD,HD2 2YD,01484 519911,53.663291,-1.799614
B85636,WESTBOURNE SURGERY,North East and Yorkshire,QWO,HUDDERSFIELD,HD1 4QR,0844 3878280,53.650952,-1.806102
B85640,KIRKGATE SURGERY,North East and Yorkshire,QWO,BATLEY,WF17 9HE,01924 420242,53.732234,-1.667625
B85641,LOCKWOOD SURGERY,North East and Yorkshire,QWO,HUDDERSFIELD,HD1 3XH,01484 421580,53.632519,-1.795963
B85645,SAVILE TOWN MEDICAL CTR.,North East and Yorkshire,QWO,DEWSBURY,WF12 9AY,01924 461124,53.682244,-1.625808
B85646,THE ALBION MOUNT MEDICAL PRACTICE,North East and Yorkshire,QWO,DEWSBURY,WF13 2AJ,01924 430676,53.695921,-1.633713
B85650,DR MAHMOOD & PARTNERS,North East and Yorkshire,QWO,DEWSBURY,WF13 3JY,01924 351510,53.677829,-1.661589
B85652,SIDINGS HEALTHCARE CENTRE,North East and Yorkshire,QWO,DEWSBURY,WF12 9QU,01924 468686,53.681539,-1.633202
B85655,CHERRY TREE SURGERY,North East and Yorkshire,QWO,BATLEY,WF17 5DH,01924 471115,53.714761,-1.636641
B85659,THE WHITEHOUSE CENTRE,North East and Yorkshire,QWO,HUDDERSFIELD,HD1 4EW,01484 301911,53.646396,-1.79039
B85660,THE JUNCTION SURGERY,North East and Yorkshire,QWO,HUDDERSFIELD,HD5 8BE,0844 4772421,53.643713,-1.759304
B86002,CITY VIEW MEDICAL PRACTICE,North East and Yorkshire,QWO,LEEDS,LS11 8LH,0113 4677515,53.778323,-1.555879
B86003,DR G LEES & PARTNERS,North East and Yorkshire,QWO,LEEDS,LS12 3HD,0113 4677499,53.796441,-1.593443
B86004,HIGHFIELD SURGERY,North East and Yorkshire,QWO,LEEDS,LS16 7RX,0113 2953600,53.855755,-1.607723
B86005,DR N DUMPHY & PARTNERS,North East and Yorkshire,QWO,LEEDS,LS11 5HT,0113 2720900,53.774132,-1.545514
B86006,OULTON MEDICAL CENTRE,North East and Yorkshire,QWO,LEEDS,LS26 8SZ,01132 82138,53.752509,-1.449446
B86007,WINDMILL HEALTH CENTRE,North East and Yorkshire,QWO,LEEDS,LS14 5BD,0113 2733733,53.822446,-1.445615
B86008,ALWOODLEY MEDICAL CENTRE,North East and Yorkshire,QWO,LEEDS,LS17 5DT,0113 3930119,53.847039,-1.551688
B86009,MANSTON SURGERY,North East and Yorkshire,QWO,LEEDS,LS15 8BZ,0113 2645455,53.804226,-1.451366
B86010,COLLINGHAM CHURCH VIEW SURGERY,North East and Yorkshire,QWO,WETHERBY,LS22 5BQ,01937 222841,53.908116,-1.409
B86011,HILLFOOT SURGERY,North East and Yorkshire,QWO,PUDSEY,LS28 7QR,0113 2574169,53.799868,-1.687421
B86012,LEEDS CITY MEDICAL PRACTICE,North East and Yorkshire,QWO,LEEDS,LS11 8LH,0113 4677500,53.778323,-1.555879
B86013,THE NORTH LEEDS MEDICAL PRACTICE,North East and Yorkshire,QWO,LEEDS,LS17 6PZ,0113 2680066,53.843197,-1.534023
B86014,ROBIN LANE HEALTH AND WELLBEING CENTRE,North East and Yorkshire,QWO,PUDSEY,LS28 7DE,0113 2576787,53.795025,-1.661316
B86015,MANOR PARK SURGERY,North East and Yorkshire,QWO,LEEDS,LS13 2UP,0113 2394416,53.814092,-1.628918
B86016,SHAFTESBURY MEDICAL CTR.,North East and Yorkshire,QWO,LEEDS,LS9 9EF,0113 2409500,53.800277,-1.497846
B86017,CRAVEN ROAD MEDICAL PRACTICE,North East and Yorkshire,QWO,LEEDS,LS6 2RX,0113 2953530,53.814117,-1.547255
B86018,MULBERRY STREET MEDICAL PRACTICE,North East and Yorkshire,QWO,PUDSEY,LS28 7XP,0113 2570711,53.794754,-1.663975
B86019,DIAMOND MEDICAL GROUP,North East and Yorkshire,QWO,LEEDS,LS7 3RA,0113 2007474,53.827031,-1.546721
B86020,LOFTHOUSE SURGERY,North East and Yorkshire,QWO,WAKEFIELD,WF3 3SA,01924 822273,53.729459,-1.495385
B86022,OAKWOOD LANE MEDICAL PRACTICE,North East and Yorkshire,QWO,LEEDS,LS8 3BZ,01132 214700,53.819585,-1.493985
B86024,PRIORY VIEW MEDICAL CENTRE,North East and Yorkshire,QWO,LEEDS,LS12 1HU,0113 2954260,53.79165,-1.575153
B86025,HYDE PARK SURGERY,North East and Yorkshire,QWO,LEEDS,LS6 1SG,01132 001090,53.806841,-1.567726
B86028,SOUTH QUEEN MEDICAL CENTRE,North East and Yorkshire,QWO,LEEDS,LS27 9EW,0113 2534863,53.742198,-1.598788
B86029,WESTGATE SURGERY,North East and Yorkshire,QWO,OTLEY,LS21 3HD,01943 660533,53.904796,-1.699165
B86030,BURTON CROFT SURGERY,North East and Yorkshire,QWO,LEEDS,LS6 2AF,0113 2744777,53.820823,-1.576924
B86032,CHEVIN MEDICAL PRACTICE,North East and Yorkshire,QWO,OTLEY,LS21 1BQ,01943 858300,53.906768,-1.693687
B86033,CROSSLEY STREET SURGERY,North East and Yorkshire,QWO,WETHERBY,LS22 6RT,01937 543200,53.930296,-1.388933
B86034,SPA SURGERY,North East and Yorkshire,QWO,WETHERBY,LS23 6PY,01937 842842,53.903657,-1.343052
B86035,SOUTH BANK SURGERY,North East and Yorkshire,QWO,LEEDS,LS10 2PT,0113 2705194,53.77991,-1.526513
B86036,GIBSON LANE PRACTICE,North East and Yorkshire,QWO,LEEDS,LS25 7JN,0113 2870870,53.771369,-1.36786
B86038,GUISELEY AND YEADON MEDICAL PRACTICE,North East and Yorkshire,QWO,LEEDS,LS19 7PS,0113 8879742,53.865309,-1.684136
B86039,ALLERTON MEDICAL CENTRE,North East and Yorkshire,QWO,LEEDS,LS7 4LF,0113 2953460,53.826937,-1.533884
B86041,VESPER ROAD,North East and Yorkshire,QWO,LEEDS,LS5 3QT,0113 2751248,53.827342,-1.615325
B86042,LINGWELL CROFT SURGERY,North East and Yorkshire,QWO,LEEDS,LS10 3NB,0113 2704848,53.749986,-1.535053
B86043,EAST PARK MEDICAL CENTRE,North East and Yorkshire,QWO,LEEDS,LS9 9JD,0113 8878134,53.793184,-1.514948
B86044,"DR S HUTCHINSON & PARTNERS, IW&H M PRAC",North East and Yorkshire,QWO,LEEDS,LS16 6FR,0113 2303470,53.846647,-1.603993
B86048,GARFORTH MEDICAL CENTRE,North East and Yorkshire,QWO,LEEDS,LS25 1HB,0113 2877321,53.792314,-1.387446
B86049,WOODHOUSE MEDICAL PRACTICE,North East and Yorkshire,QWO,LEEDS,LS6 2SF,01132 213510,53.812644,-1.547544
B86050,WEST LODGE SURGERY,North East and Yorkshire,QWO,PUDSEY,LS28 5DL,01132 570295,53.810885,-1.669708
B86051,AIRE VALLEY SURGERY,North East and Yorkshire,QWO,LEEDS,LS19 7JN,01132 954234,53.866228,-1.684874
B86052,PARK ROAD & MENSTON,North East and Yorkshire,QWO,LEEDS,LS20 8AR,01943 874151,53.87175,-1.711462
B86054,THE GARDEN SURGERY,North East and Yorkshire,QWO,LEEDS,LS9 9EF,0113 2009190,53.800277,-1.497846
B86055,KEYSTONE GP PARTNERSHIP,North East and Yorkshire,QWO,LEEDS,LS15 8BA,0113 2951828,53.807471,-1.44935
B86057,WINDSOR HOUSE GROUP PRACTICE,North East and Yorkshire,QWO,LEEDS,LS27 9NB,03332 427777,53.744791,-1.605541
B86059,MEANWOOD HEALTH CENTRE,North East and Yorkshire,QWO,LEEDS,LS6 4JN,0113 2305055,53.827183,-1.565816
B86060,THORNTON MEDICAL CENTRE,North East and Yorkshire,QWO,LEEDS,LS12 1JE,0113 2310626,53.791924,-1.576212
B86061,HAREHILLS CORNER SURGERY,North East and Yorkshire,QWO,LEEDS,LS8 4HQ,0113 2217217,53.815705,-1.518819
B86062,THE MEDICAL CENTRE,North East and Yorkshire,QWO,LEEDS,LS14 6DX,0113 2647278,53.813727,-1.455267
B86064,LEIGH VIEW MEDICAL PRACTICE,North East and Yorkshire,QWO,WAKEFIELD,WF3 1RQ,01132 537628,53.728574,-1.558358
B86066,THE STREET LANE PRACTICE,North East and Yorkshire,QWO,LEEDS,LS8 1AY,01132 371128,53.843035,-1.513522
B86067,THE DEKEYSER GROUP PRACTICE,North East and Yorkshire,QWO,LEEDS,LS27 9EN,0113 2951600,53.743055,-1.604996
B86068,ABBEY GRANGE MEDICAL PRACTICE,North East and Yorkshire,QWO,LEEDS,LS5 3JN,0113 2951844,53.818319,-1.601585
B86069,BURLEY PARK MEDICAL CENTRE,North East and Yorkshire,QWO,LEEDS,LS4 2EL,0113 2953850,53.807558,-1.57976
B86070,AIREBOROUGH FAMILY PRACTICE,North East and Yorkshire,QWO,LEEDS,LS19 7JN,0113 3911950,53.866228,-1.684874
B86071,WHITEHALL SURGERY,North East and Yorkshire,QWO,LEEDS,LS12 5SG,0113 4677533,53.782464,-1.601121
B86075,DR T P FOX & PARTNERS,North East and Yorkshire,QWO,LEEDS,LS15 9JH,0113 2951803,53.791966,-1.431929
B86081,BELLBROOKE SURGERY,North East and Yorkshire,QWO,LEEDS,LS9 6AU,0113 8879565,53.808932,-1.50652
B86086,LAUREL BANK SURGERY,North East and Yorkshire,QWO,LEEDS,LS6 3DS,0113 2953900,53.816958,-1.587336
B86089,NOVA SCOTIA MEDICAL CNTR,North East and Yorkshire,QWO,CASTLEFORD,WF10 2DP,01977 552193,53.747577,-1.372993
B86092,KIPPAX HALL SURGERY,North East and Yorkshire,QWO,LEEDS,LS25 7AB,0113 3854558,53.766557,-1.368964
B86093,PARK EDGE PRACTICE,North East and Yorkshire,QWO,LEEDS,LS14 1HX,0113 2954650,53.82521,-1.483041
B86094,DR S M CHEN & PARTNER,North East and Yorkshire,QWO,PUDSEY,LS28 9AW,0113 2574730,53.801254,-1.651928
B86096,ARTHINGTON MEDICAL CENTRE,North East and Yorkshire,QWO,LEEDS,LS10 2JJ,0113 3852180,53.772153,-1.533216
B86100,ST MARTINS PRACTICE,North East and Yorkshire,QWO,LEEDS,LS7 4HZ,0113 2211888,53.822131,-1.532144
B86101,GILDERSOME HEALTH CENTRE,North East and Yorkshire,QWO,LEEDS,LS27 7HL,0113 2535134,53.75657,-1.629304
B86103,CONWAY MEDICAL CENTRE,North East and Yorkshire,QWO,LEEDS,LS8 5DE,0113 3918100,53.811136,-1.51348
B86104,BRAMLEY VILLAGE HEALTH & WELLBEING CTR,North East and Yorkshire,QWO,LEEDS,LS13 2BL,0113 2563250,53.807827,-1.623035
B86106,FOUNDRY LANE SURGERY,North East and Yorkshire,QWO,LEEDS,LS14 6GG,0113 2951200,53.810591,-1.471572
B86108,CHAPELTOWN FAMILY SURGERY,North East and Yorkshire,QWO,LEEDS,LS7 4BB,0113 2407000,53.811448,-1.526204
B86109,KIRKSTALL LANE MEDICAL CENTRE,North East and Yorkshire,QWO,LEEDS,LS6 3DS,0113 2953666,53.816958,-1.587336
B86110,LEEDS STUDENT MEDICAL PRACTICE,North East and Yorkshire,QWO,LEEDS,LS2 9AE,0113 2954488,53.807827,-1.549843
B86642,DR S HUSSAIN,North East and Yorkshire,QWO,LEEDS,LS10 2PE,0113 2711884,53.779422,-1.525866
B86643,THE ROUNDHAY ROAD SURGERY,North East and Yorkshire,QWO,LEEDS,LS8 5AN,0113 2350379,53.813933,-1.520708
B86648,FAMILY DOCTORS,North East and Yorkshire,QWO,LEEDS,LS15 8NN,0113 2602262,53.798264,-1.440969
B86655,BEECH TREE MEDICAL CENTRE,North East and Yorkshire,QWO,LEEDS,LS13 4JH,0113 2630112,53.797099,-1.621416
B86658,MOORFIELD HOUSE SURGERY,North East and Yorkshire,QWO,LEEDS,LS25 1AN,0113 2862214,53.795779,-1.390235
B86666,NEWTON SURGERY,North East and Yorkshire,QWO,LEEDS,LS7 3JT,0113 2953737,53.821577,-1.533001
B86667,BEESTON VILLAGE SURGERY,North East and Yorkshire,QWO,LEEDS,LS11 8PN,0113 2720720,53.772431,-1.569156
B86669,YORK STREET HEALTH PRACTICE,North East and Yorkshire,QWO,LEEDS,LS9 8AA,0113 2954840,53.79657,-1.532565
B86672,HAWTHORN SURGERY,North East and Yorkshire,QWO,LEEDS,LS12 5SG,0113 2954770,53.782464,-1.601121
B86673,WETHERBY & BRAMHAM SURGERY,North East and Yorkshire,QWO,WETHERBY,LS22 6JS,01937 845854,53.931036,-1.378871
B86675,LINCOLN GREEN MEDICAL CENTRE,North East and Yorkshire,QWO,LEEDS,LS9 7TA,0113 2211900,53.802114,-1.5252
B86678,DRIGHLINGTON MEDICAL CENTRE,North East and Yorkshire,QWO,BRADFORD,BD11 1JU,0113 2956888,53.75543,-1.663453
B87001,MIDDLESTOWN,North East and Yorkshire,QWO,WAKEFIELD,WF4 4PA,01924 237100,53.650561,-1.600565
B87002,ORCHARD CROFT,North East and Yorkshire,QWO,WAKEFIELD,WF4 5BY,01924 271016,53.660017,-1.549843
B87003,COLLEGE LANE SURGERY,North East and Yorkshire,QWO,PONTEFRACT,WF7 7HZ,01977 611023,53.644591,-1.336295
B87004,WARRENGATE MEDICAL CENTRE,North East and Yorkshire,QWO,WAKEFIELD,WF1 4PR,01924 371011,53.68262,-1.490796
B87005,RIVERSIDE MEDICAL CENTRE,North East and Yorkshire,QWO,CASTLEFORD,WF10 1PH,01977 554831,53.728003,-1.358022
B87006,PARK GREEN SURGERY,North East and Yorkshire,QWO,PONTEFRACT,WF9 3AP,01977 642251,53.589935,-1.309912
B87007,NORTHGATE SURGERY,North East and Yorkshire,QWO,PONTEFRACT,WF8 1NF,01977 703635,53.693983,-1.309439
B87008,LUPSET HEALTH CENTRE,North East and Yorkshire,QWO,WAKEFIELD,WF2 8FE,01924 668977,53.672429,-1.524008
B87009,ST THOMAS ROAD SURGERY,North East and Yorkshire,QWO,PONTEFRACT,WF7 5HE,01977 801363,53.674908,-1.355937
B87011,FRIARWOOD SURGERY,North East and Yorkshire,QWO,PONTEFRACT,WF8 1SU,01977 704777,53.688271,-1.307201
B87012,MAYBUSH MEDICAL CENTRE,North East and Yorkshire,QWO,WAKEFIELD,WF1 5PN,01924 334451,53.670273,-1.489249
B87013,OUTWOOD PARK MEDICAL CENTRE,North East and Yorkshire,QWO,WAKEFIELD,WF1 2PE,01924 822626,53.710959,-1.512287
B87015,STUART ROAD,North East and Yorkshire,QWO,PONTEFRACT,WF8 4PQ,01977 703437,53.69345,-1.315279
B87016,WHITE ROSE SURGERY,North East and Yorkshire,QWO,PONTEFRACT,WF9 2RD,01977 642412,53.595449,-1.293671
B87017,TRINITY MEDICAL CENTRE,North East and Yorkshire,QWO,WAKEFIELD,WF1 1PG,01924 784101,53.679958,-1.49484
B87018,HENRY MOORE CLINIC,North East and Yorkshire,QWO,CASTLEFORD,WF10 4EN,01977 552007,53.720794,-1.354494
B87019,STANLEY,North East and Yorkshire,QWO,WAKEFIELD,WF3 4HS,01924 822328,53.713764,-1.476239
B87020,CHAPELTHORPE,North East and Yorkshire,QWO,WAKEFIELD,WF2 7GP,01924 669080,53.644775,-1.506727
B87021,ASH GROVE,North East and Yorkshire,QWO,KNOTTINGLEY,WF11 0JA,01977 673141,53.70504,-1.245559
B87022,HOMESTEAD,North East and Yorkshire,QWO,WAKEFIELD,WF2 9PE,01924 384498,53.682286,-1.518749
B87025,CASTLEFORD MEDICAL PRACTICE,North East and Yorkshire,QWO,CASTLEFORD,WF10 1DP,01977 465777,53.724668,-1.356178
B87026,THE GRANGE MEDICAL CENTRE,North East and Yorkshire,QWO,PONTEFRACT,WF9 4DP,01977 610009,53.611853,-1.35425
B87027,NEW SOUTHGATE SURGERY,North East and Yorkshire,QWO,WAKEFIELD,WF1 3JQ,01924 334400,53.692779,-1.504152
B87028,CROFTON AND SHARLSTON MED PRAC,North East and Yorkshire,QWO,WAKEFIELD,WF4 1HJ,01924 862621,53.65659,-1.427044
B87030,HEALTH CARE FIRST PARTNERSHIP,North East and Yorkshire,QWO,LEEDS,LS26 9AA,01977 664141,53.73679,-1.393589
B87031,OSSETT SURGERY,North East and Yorkshire,QWO,OSSETT,WF5 8DF,01924 217667,53.681484,-1.58312
B87032,STATION LANE,North East and Yorkshire,QWO,PONTEFRACT,WF7 6JL,01977 600381,53.68116,-1.358643
B87033,NEWLAND SURGERY,North East and Yorkshire,QWO,NORMANTON,WF6 1QD,01924 220256,53.695164,-1.42425
B87036,LANGTHWAITE SURGERY,North East and Yorkshire,QWO,PONTEFRACT,WF9 3AP,01977 644850,53.589935,-1.309912
B87039,KING'S MEDICAL PRACTICE,North East and Yorkshire,QWO,NORMANTON,WF6 2AZ,01924 223909,53.70066,-1.419616
B87042,TIEVE TARA,North East and Yorkshire,QWO,CASTLEFORD,WF10 2QP,01977 668455,53.732599,-1.314629
B87044,ALVERTHORPE,North East and Yorkshire,QWO,WAKEFIELD,WF2 0DP,01924 372584,53.685476,-1.518486
B87602,PATIENCE LANE SURGERY,North East and Yorkshire,QWO,NORMANTON,WF6 2JZ,01924 890729,53.703819,-1.43369
B87604,EASTMOOR HEALTH CENTRE,North East and Yorkshire,QWO,WAKEFIELD,WF1 4SD,01924 327625,53.69002,-1.476866
C81001,SPRINGS HEALTH CENTRE,Midlands,QJ2,CHESTERFIELD,S43 4PL,01246 819444,53.27774,-1.265531
C81002,THE VALLEYS MEDICAL PARTNERSHIP,Midlands,QJ2,SHEFFIELD,S21 4BZ,01246 439101,53.307676,-1.355259
C81003,SETT VALLEY MEDICAL CENTRE,Midlands,QJ2,HIGH PEAK,SK22 4BP,01663 743483,53.367607,-1.998081
C81004,IVY GROVE SURGERY,Midlands,QJ2,RIPLEY,DE5 3TH,01773 514130,53.042217,-1.402819
C81005,JESSOP MEDICAL PRACTICE,Midlands,QJ2,ALFRETON,DE55 1LU,01773 606276,53.074367,-1.372224
C81006,HORIZON HEALTHCARE,Midlands,QJ2,DERBY,DE1 1TH,01332 737777,52.917065,-1.478886
C81007,VERNON STREET MEDICAL CTR,Midlands,QJ2,DERBY,DE1 1FW,01332 332812,52.924019,-1.49039
C81008,ROYAL PRIMARY CARE CLAY CROSS,Midlands,QJ2,CHESTERFIELD,S45 9NR,01246 866771,53.167502,-1.414351
C81009,WILSON STREET SURGERY,Midlands,QJ2,DERBY,DE1 1PG,01332 332628,52.919174,-1.48014
C81010,THE MOIR MEDICAL CENTRE,Midlands,QJ2,NOTTINGHAM,NG10 1QQ,0115 9737320,52.898642,-1.272545
C81012,THE SURGERY AT WHEATBRIDGE,Midlands,QJ2,CHESTERFIELD,S40 2AB,01246 277287,53.233962,-1.439619
C81013,BASLOW HEALTH CENTRE,Midlands,QJ2,BAKEWELL,DE45 1SP,01246 582216,53.246162,-1.617821
C81014,DERWENT VALLEY MEDICAL PRACTICE,Midlands,QJ2,DERBY,DE21 6AT,01332 224588,52.926715,-1.457647
C81015,NEWBOLD SURGERY,Midlands,QJ2,CHESTERFIELD,S41 8DU,01246 277381,53.256108,-1.450707
C81016,PEAK & DALES MEDICAL PARTNERSHIP,Midlands,QJ2,BAKEWELL,DE45 1ED,01629 816636,53.211692,-1.676376
C81017,ARTHUR MEDICAL CENTRE,Midlands,QJ2,ILKESTON,DE7 6AX,01332 880249,53.001521,-1.422632
C81018,DOVE RIVER,Midlands,QNC,BURTON-ON-TRENT,DE13 9NA,01283 812455,52.858472,-1.686357
C81020,NEWHALL SURGERY,Midlands,QJ2,SWADLINCOTE,DE11 0HU,01283 217092,52.785163,-1.573961
C81021,OLD STATION SURGERY,Midlands,QJ2,ILKESTON,DE7 8ES,0115 9301055,52.978912,-1.312469
C81022,SOUTH STREET SURGERY,Midlands,QJ2,ILKESTON,DE7 5PZ,0115 9322933,52.96827,-1.308037
C81023,THE AITUNE MEDICAL PRACTICE,Midlands,QJ2,NOTTINGHAM,NG10 1RY,0115 8554250,52.901572,-1.272526
C81025,DRONFIELD MEDICAL PRACTICE,Midlands,QJ2,DRONFIELD,S18 1PY,01246 412242,53.302375,-1.475083
C81026,ADAM HOUSE MEDICAL CENTRE,Midlands,QJ2,NOTTINGHAM,NG10 5HZ,0115 9496911,52.922505,-1.294323
C81027,SOMERCOTES MEDICAL CENTRE,Midlands,QJ2,ALFRETON,DE55 4JJ,01773 602141,53.082351,-1.372601
C81029,STAFFA HEALTH,Midlands,QJ2,ALFRETON,DE55 5PS,01773 309030,53.146234,-1.338823
C81030,CREDAS MEDICAL,Midlands,QJ2,MATLOCK,DE4 2EU,01629 733205,53.160917,-1.58702
C81031,PARK SURGERY,Midlands,QJ2,HEANOR,DE75 7DX,01773 531011,53.011206,-1.351707
C81032,SWADLINCOTE SURGERY,Midlands,QJ2,SWADLINCOTE,DE11 0PP,01283 551717,52.775817,-1.562503
C81033,SHIRES HEALTHCARE,Midlands,QJ2,MANSFIELD,NG20 8DG,01623 742464,53.202532,-1.21569
C81034,STEWART MEDICAL CENTRE,Midlands,QJ2,BUXTON,SK17 6JP,01298 22338,53.254016,-1.918032
C81035,VILLAGE SURGERY,Midlands,QJ2,DERBY,DE23 8AL,01332 414944,52.896392,-1.485778
C81036,FRIAR GATE SURGERY,Midlands,QJ2,DERBY,DE1 1DZ,01332 203787,52.924758,-1.486618
C81037,ASHBOURNE MEDICAL PRACTICE,Midlands,QJ2,ASHBOURNE,DE6 1DR,01335 230085,53.012879,-1.737585
C81038,WHITEMOOR MEDICAL CENTRE,Midlands,QJ2,BELPER,DE56 0JB,01773 880099,53.031079,-1.455178
C81039,EYAM SURGERY,Midlands,QJ2,HOPE VALLEY,S32 5QH,01433 630836,53.284081,-1.673925
C81040,PARK LANE SURGERY,Midlands,QJ2,DERBY,DE22 2DS,01332 552461,52.955553,-1.479808
C81041,WELBECK ROAD HEALTH CENTRE,Midlands,QJ2,CHESTERFIELD,S44 6DF,01246 825487,53.23078,-1.286528
C81042,MICKLEOVER MEDICAL CENTRE,Midlands,QJ2,DERBY,DE3 0HA,01332 513283,52.907111,-1.54633
C81044,WHITTINGTON MOOR SURGERY,Midlands,QJ2,CHESTERFIELD,S41 8NA,01246 456938,53.260996,-1.431065
C81045,ROYAL PRIMARY CARE CHESTERFIELD WEST,Midlands,QJ2,CHESTERFIELD,S40 4AA,01246 232946,53.23846,-1.438541
C81046,WEST HALLAM MEDICAL CTR,Midlands,QJ2,ILKESTON,DE7 6GR,0115 9440088,52.966624,-1.359163
C81047,ALVASTON MEDICAL CENTRE,Midlands,QJ2,DERBY,DE24 0GE,01332 755990,52.893817,-1.429622
C81048,APPLETREE MEDICAL PRACTICE,Midlands,QJ2,BELPER,DE56 4GG,01332 842288,52.985123,-1.486916
C81049,KELVINGROVE MEDICAL CENTRE,Midlands,QJ2,HEANOR,DE75 7HA,01773 713201,53.013206,-1.349083
C81050,THE VILLAGE SURGERY,Midlands,QJ2,ALFRETON,DE55 2FY,01773 811469,53.106002,-1.34416
C81051,THE PARK MEDICAL PRACTICE,Midlands,QJ2,DERBY,DE21 6LA,01332 667911,52.928801,-1.432644
C81052,ROYAL PRIMARY CARE BROOKLYN,Midlands,QJ2,HEANOR,DE75 7AL,01773 712552,53.017188,-1.342614
C81053,PARKSIDE SURGERY,Midlands,QJ2,ALFRETON,DE55 7AH,01773 546900,53.098144,-1.391457
C81054,HOLLYBROOK MEDICAL CENTRE,Midlands,QJ2,DERBY,DE23 3TX,01332 523300,52.891826,-1.531642
C81055,NORTH WINGFIELD MEDICAL CENTRE,Midlands,QJ2,CHESTERFIELD,S42 5ND,01246 851035,53.184331,-1.387725
C81056,CLAY CROSS MEDICAL CENTRE,Midlands,QJ2,CHESTERFIELD,S45 9NG,01246 862237,53.168103,-1.412204
C81057,WILLINGTON SURGERY,Midlands,QJ2,DERBY,DE65 6QT,01283 703318,52.850285,-1.566835
C81058,THE BRIMINGTON SURGERY,Midlands,QJ2,CHESTERFIELD,S43 1JG,01246 273224,53.257173,-1.395708
C81059,RIPLEY MEDICAL CENTRE,Midlands,QJ2,RIPLEY,DE5 3HR,01773 303591,53.047059,-1.405721
C81060,WOODVILLE SURGERY,Midlands,QJ2,SWADLINCOTE,DE11 7JE,01283 217036,52.770702,-1.536497
C81061,LITTLEWICK MEDICAL CENTRE,Midlands,QJ2,ILKESTON,DE7 5PR,0115 9325229,52.966472,-1.304835
C81062,HANNAGE BROOK MEDICAL CENTRE,Midlands,QJ2,MATLOCK,DE4 4JG,01629 822434,53.077623,-1.571367
C81063,THORNBROOK SURGERY,Midlands,QJ2,HIGH PEAK,SK23 0RH,01298 812725,53.323233,-1.911354
C81064,PARK FARM MEDICAL CENTRE,Midlands,QJ2,DERBY,DE22 2QN,01332 559402,52.944097,-1.495869
C81065,BUXTON MEDICAL PRACTICE,Midlands,QJ2,BUXTON,SK17 9BZ,01298 24105,53.253137,-1.920446
C81066,OVERDALE MEDICAL PRACTICE,Midlands,QJ2,DERBY,DE72 3HG,01332 280800,52.91234,-1.378477
C81067,CHATSWORTH ROAD MEDICAL CENTRE,Midlands,QJ2,CHESTERFIELD,S40 3PY,01246 568065,53.231374,-1.467337
C81068,CHAPEL STREET MEDICAL CENTRE,Midlands,QJ2,DERBY,DE21 7RJ,01332 680520,52.921075,-1.404292
C81069,RIVERSDALE SURGERY,Midlands,QJ2,BELPER,DE56 1AY,01773 822386,53.024119,-1.484994
C81070,OAKHILL MEDICAL PRACTICE,Midlands,QJ2,DRONFIELD,S18 2EJ,01246 296900,53.30568,-1.45831
C81071,OSMASTON SURGERY,Midlands,QJ2,DERBY,DE23 8JX,01332 346433,52.911093,-1.467998
C81072,LISTER HOUSE SURGERY,Midlands,QJ2,DERBY,DE23 8RJ,01332 271212,52.90097,-1.477949
C81073,MACKLIN STREET SURGERY,Midlands,QJ2,DERBY,DE1 1JX,01332 340381,52.92115,-1.481767
C81075,HENMORE HEALTH - BRAILSFORD SURGERY,Midlands,QJ2,ASHBOURNE,DE6 3BX,01335 360328,52.969448,-1.624923
C81080,GOYT VALLEY MEDICAL PRACTICE,Midlands,QJ2,HIGH PEAK,SK23 7SR,0844 6550220,53.3305,-1.983113
C81081,MANOR HOUSE SURGERY,Midlands,QJ2,GLOSSOP,SK13 8PS,01457 860860,53.443952,-1.945173
C81082,HARTINGTON SURGERY,Midlands,QJ2,BUXTON,SK17 0AQ,01298 84315,53.142506,-1.810814
C81083,WEST PARK SURGERY,Midlands,QJ2,NOTTINGHAM,NG10 1RY,0115 8554200,52.901572,-1.272526
C81084,INSPIRE HEALTH - AVENUE HOUSE SURGERY,Midlands,QJ2,CHESTERFIELD,S40 1LE,01246 244040,53.23805,-1.433572
C81086,HENMORE HEALTH - ASHBOURNE SURGERY,Midlands,QJ2,ASHBOURNE,DE6 1RR,01335 300588,53.013374,-1.737493
C81089,STUBLEY MEDICAL CENTRE,Midlands,QJ2,DRONFIELD,S18 8QY,01246 296970,53.304986,-1.488542
C81091,KILLAMARSH MEDICAL PRACTICE,Midlands,QJ2,SHEFFIELD,S21 1DX,0114 2510000,53.325026,-1.321458
C81092,EVELYN MEDICAL CENTRE,Midlands,QJ2,HOPE VALLEY,S33 6RJ,01433 621557,53.348861,-1.747924
C81094,CRICH MEDICAL PRACTICE,Midlands,QJ2,MATLOCK,DE4 5PB,01773 852966,53.084861,-1.483358
C81095,EMMETT CARR SURGERY,Midlands,QJ2,SHEFFIELD,S21 3TY,01246 430200,53.294997,-1.324798
C81096,CRAG'S HEALTH CARE,Midlands,QJ2,WORKSOP,S80 4DY,01909 809079,53.260161,-1.223721
C81097,COLLEGE STREET MEDICAL PRACTICE,Midlands,QJ2,NOTTINGHAM,NG10 4NP,0115 9734502,52.904285,-1.282575
C81099,LIMES MEDICAL CENTRE,Midlands,QJ2,ALFRETON,DE55 7DW,01773 833133,53.098512,-1.387883
C81101,LIME GROVE MEDICAL CENTRE,Midlands,QJ2,MATLOCK,DE4 3FD,01629 581586,53.139049,-1.552923
C81106,LAMBGATES HEALTH CENTRE,Midlands,QJ2,GLOSSOP,SK13 1DJ,01457 869090,53.463493,-1.970151
C81108,MELBOURNE & CHELLASTON MEDICAL PRACTICE,Midlands,QJ2,DERBY,DE73 8EF,01332 862124,52.821729,-1.42954
C81110,WELLBROOK MEDICAL CENTRE,Midlands,QJ2,DERBY,DE65 5GZ,01283 732406,52.868363,-1.63089
C81113,MICKLEOVER SURGERY,Midlands,QJ2,DERBY,DE3 9BJ,01332 519160,52.907499,-1.537315
C81114,GRESLEYDALE HEALTHCARE CENTRE,Midlands,QJ2,SWADLINCOTE,DE11 9JT,01283 227870,52.760775,-1.576835
C81115,GLADSTONE HOUSE SURGERY,Midlands,QJ2,ILKESTON,DE7 5QS,0115 9320248,52.968836,-1.307923
C81118,DERBY FAMILY MEDICAL CENTRE,Midlands,QJ2,DERBY,DE23 6QQ,01332 773243,52.90635,-1.481007
C81604,EDEN SURGERY,Midlands,QJ2,ILKESTON,DE7 5AN,0115 9444081,52.962668,-1.301591
C81611,MATLOCK AND ASHOVER PRACTICE,Midlands,QJ2,CHESTERFIELD,S45 0BA,01246 590711,53.166544,-1.471056
C81615,COTTAGE LANE SURGERY,Midlands,QJ2,GLOSSOP,SK13 6EQ,01457 861343,53.447172,-1.980506
C81616,PEARTREE MEDICAL CENTRE,Midlands,QJ2,DERBY,DE23 8NQ,01332 360692,52.905165,-1.475341
C81634,ARDEN HOUSE MEDICAL PRACTICE,Midlands,QJ2,HIGH PEAK,SK22 4AQ,01663 745266,53.366438,-2.002379
C81638,CASTLE STREET MEDICAL CENTRE,Midlands,QJ2,CHESTERFIELD,S44 6PP,01246 822983,53.229627,-1.293753
C81640,SIMMONDLEY MEDICAL PRACTICE,Midlands,QJ2,GLOSSOP,SK13 6NN,01457 862305,53.439557,-1.969038
C81647,ST LAWRENCE ROAD SURGERY,Midlands,QJ2,CHESTERFIELD,S42 5LH,01246 851029,53.180151,-1.38783
C81649,CALOW AND BRIMINGTON PRACTICE,Midlands,QJ2,CHESTERFIELD,S43 1DD,01246 220166,53.257867,-1.396118
C81652,DERWENT MEDICAL CENTRE,Midlands,QJ2,DERBY,DE1 3AZ,01332 292939,52.929326,-1.480747
C81653,BROOK MEDICAL CENTRE,Midlands,QJ2,DERBY,DE22 1FT,01332 291991,52.932332,-1.492152
C81655,FAMILY FRIENDLY SURGERY,Midlands,QJ2,CHESTERFIELD,S44 6DE,01246 826815,53.230289,-1.288663
C81658,WINGERWORTH MEDICAL CENTRE,Midlands,QJ2,CHESTERFIELD,S42 6PX,01246 276590,53.200934,-1.437055
C81662,BARLBOROUGH MEDICAL PRACTICE,Midlands,QJ2,CHESTERFIELD,S43 4TY,01246 819994,53.289549,-1.28447
C82001,SOUTH LEICESTERSHIRE MEDICAL GROUP,Midlands,QK1,LEICESTER,LE8 0LG,0116 2793308,52.535941,-0.997348
C82002,COUNTESTHORPE HEALTH CENTRE,Midlands,QK1,LEICESTER,LE8 5QJ,0116 2776336,52.554535,-1.136767
C82003,GREENGATE MEDICAL CENTRE,Midlands,QK1,LEICESTER,LE4 3JF,0116 2677901,52.68057,-1.128533
C82005,GROBY ROAD MEDICAL CENTRE (ID PATCHETT),Midlands,QK1,LEICESTER,LE3 9ED,0116 2536263,52.644337,-1.150492
C82007,CASTLE DONINGTON SURGERY,Midlands,QK1,DERBY,DE74 2LB,01332 856050,52.842692,-1.337379
C82008,OAKMEADOW SURGERY (GJ INGRAMS),Midlands,QK1,LEICESTER,LE3 8NF,0116 2320088,52.640002,-1.196699
C82009,MARKET HARBOROUGH MED.CTR,Midlands,QK1,MARKET HARBOROUGH,LE16 9BX,01858 464242,52.477101,-0.92483
C82010,OAKHAM MEDICAL PRACTICE,Midlands,QK1,OAKHAM,LE15 6NT,01572 722621,52.670821,-0.737529
C82011,PINFOLD MEDICAL PRACTICE,Midlands,QK1,LOUGHBOROUGH,LE11 1DQ,0844 4771881,52.771542,-1.203159
C82012,IBSTOCK & BARLESTONE SURGERIES,Midlands,QK1,IBSTOCK,LE67 6JP,01530 263467,52.684887,-1.401809
C82013,BUSHLOE SURGERY,Midlands,QK1,WIGSTON,LE18 2EW,0116 3440233,52.583301,-1.116912
C82014,CASTLE MEDICAL GROUP,Midlands,QK1,ASHBY-DE-LA-ZOUCH,LE65 2LP,01530 414131,52.749369,-1.48192
C82016,LONG CLAWSON MEDICAL PRACTICE,Midlands,QK1,MELTON MOWBRAY,LE14 4PA,01664 822214,52.839236,-0.923903
C82017,MEASHAM MEDICAL UNIT,Midlands,QK1,SWADLINCOTE,DE12 7HR,01530 270667,52.704956,-1.508467
C82018,MANOR PARK MEDICAL PRACTICE,Midlands,QK1,LEICESTER,LE4 0JF,0116 2353148,52.656286,-1.14306
C82019,STURDEE ROAD HEALTH AND WELLBEING CENTRE,Midlands,QK1,LEICESTER,LE2 9DB,0116 2783066,52.590454,-1.143413
C82020,DE MONTFORT SURGERY,Midlands,QK1,LEICESTER,LE2 7HX,0116 2227272,52.6286,-1.141192
C82021,THE CENTRAL SURGERY,Midlands,QK1,LEICESTER,LE2 5AA,0116 2712175,52.598995,-1.082196
C82022,THE BILLESDON SURGERY,Midlands,QK1,LEICESTER,LE7 9AJ,0116 2596206,52.618192,-0.939461
C82024,SPINNEY HILL MEDICAL CENTRE,Midlands,QK1,LEICESTER,LE5 3HX,01164 827140,52.637399,-1.109204
C82025,THE WYCLIFFE MEDICAL PRACTICE,Midlands,QK1,LUTTERWORTH,LE17 4EB,01455 553531,52.457341,-1.198004
C82026,BRIDGE STREET MEDICAL PRACTICE,Midlands,QK1,LOUGHBOROUGH,LE11 1NQ,01509 263018,52.774841,-1.207161
C82027,THE OLD SCHOOL SURGERY,Midlands,QK1,LEICESTER,LE9 4LJ,01455 271442,52.547202,-1.282771
C82028,MARKFIELD MEDICAL CENTRE,Midlands,QK1,MARKFIELD,LE67 9WU,01530 249461,52.685103,-1.273047
C82030,DOWNING DRIVE SURGERY,Midlands,QK1,LEICESTER,LE5 6LP,0116 2413801,52.625313,-1.063164
C82031,JOHNSON MEDICAL PRACTICE,Midlands,QK1,LEICESTER,LE5 1BL,0116 2536299,52.652414,-1.067345
C82032,THE ANSTEY SURGERY,Midlands,QK1,LEICESTER,LE7 7AZ,0116 2362531,52.672778,-1.18718
C82033,HUMBERSTONE MEDICAL CENTRE (IP JONES),Midlands,QK1,LEICESTER,LE5 0PR,0116 2766605,52.645126,-1.089641
C82034,QUORN MEDICAL CENTRE,Midlands,QK1,LOUGHBOROUGH,LE12 8BP,01509 410800,52.745617,-1.165545
C82035,PARK VIEW SURGERY,Midlands,QK1,LOUGHBOROUGH,LE11 2AG,01509 230717,52.769061,-1.201885
C82037,EAST PARK MEDICAL CENTRE (RP PANDYA),Midlands,QK1,LEICESTER,LE5 5FD,0116 2736330,52.63365,-1.104374
C82038,LATHAM HOUSE MEDICAL PRACTICE,Midlands,QK1,MELTON MOWBRAY,LE13 1NX,01664 503000,52.765368,-0.883381
C82039,KINGSWAY SURGERY,Midlands,QK1,LEICESTER,LE3 2JN,0116 2895081,52.606097,-1.176408
C82040,ORCHARD SURGERY,Midlands,QK1,DERBY,DE74 2EL,01509 674419,52.836503,-1.277947
C82041,CHARNWOOD MEDICAL GROUP,Midlands,QK1,LOUGHBOROUGH,LE11 5DX,01509 324115,52.774322,-1.221164
C82042,THE COUNTY PRACTICE,Midlands,QK1,LEICESTER,LE7 2EQ,0116 2950500,52.700986,-1.069331
C82043,STATION VIEW HEALTH CENTRE,Midlands,QK1,HINCKLEY,LE10 1UA,01455 635362,52.537248,-1.364333
C82044,EMPINGHAM MEDICAL CENTRE,Midlands,QK1,OAKHAM,LE15 8PR,01780 460202,52.667736,-0.593772
C82045,WHITWICK ROAD SURGERY,Midlands,QK1,COALVILLE,LE67 3FA,01530 836507,52.726986,-1.367147
C82046,SAFFRON GROUP PRACTICE,Midlands,QK1,LEICESTER,LE2 6UL,0116 2440888,52.60128,-1.141224
C82047,MAPLES FAMILY MED.PRACT.,Midlands,QK1,HINCKLEY,LE10 1DS,01455 234576,52.541052,-1.367743
C82048,ROSEMEAD DRIVE SURGERY,Midlands,QK1,LEICESTER,LE2 5PP,0116 2166997,52.593419,-1.08308
C82050,LONG LANE SURGERY,Midlands,QK1,COALVILLE,LE67 4DR,01530 445945,52.721883,-1.357685
C82051,NEWBOLD VERDON MED.PRACT.,Midlands,QK1,LEICESTER,LE9 9PZ,01455 822171,52.63463,-1.34333
C82052,DR AM LEWIS' PRACTICE,Midlands,QK1,COALVILLE,LE67 5HX,01530 839629,52.742594,-1.36067
C82053,HOCKLEY FARM MED PRACT (A NANA),Midlands,QK1,LEICESTER,LE3 1HN,0116 2226100,52.630916,-1.183892
C82054,THE BURBAGE SURGERY,Midlands,QK1,HINCKLEY,LE10 2SE,01455 634879,52.530114,-1.361635
C82055,THE LIMES MEDICAL CENTRE,Midlands,QK1,LEICESTER,LE19 2DU,0116 2864421,52.573984,-1.199983
C82056,THE GLENFIELD SURGERY,Midlands,QK1,LEICESTER,LE3 8GS,0116 2333600,52.655293,-1.196537
C82059,WESTCOTES GP SURGERY (ONE),Midlands,QK1,LEICESTER,LE3 0QR,0116 2558588,52.628609,-1.15115
C82060,THE PRACTICE-SAYEED,Midlands,QK1,LEICESTER,LE5 5AY,0116 3232030,52.630817,-1.106589
C82061,BARWELL & HOLLYCROFT MEDICAL CENTRES,Midlands,QK1,LEICESTER,LE9 8DS,01455 849149,52.565676,-1.348018
C82062,BARROW HEALTH CENTRE,Midlands,QK1,LOUGHBOROUGH,LE12 8PY,01509 274430,52.751622,-1.149088
C82063,EAST LEICESTER MED PRACT(S LONGWORTH),Midlands,QK1,LEICESTER,LE5 4BP,0116 3666446,52.64202,-1.094937
C82064,FOREST HOUSE SURGERY,Midlands,QK1,LOUGHBOROUGH,LE12 9DF,01509 508412,52.766664,-1.287282
C82066,FOREST MEDICAL GROUP,Midlands,QK1,LEICESTER,LE3 3LW,0116 2898111,52.618797,-1.22676
C82067,THE CROFT MEDICAL CENTRE,Midlands,QK1,LEICESTER,LE2 4PE,0116 2711740,52.5939,-1.068661
C82068,NORTHFIELD MEDICAL CENTRE,Midlands,QK1,LEICESTER,LE8 4NS,0116 3192203,52.576768,-1.164369
C82070,WOODBROOK MEDICAL CENTRE,Midlands,QK1,LOUGHBOROUGH,LE11 1NH,01509 239166,52.774708,-1.20743
C82071,WIGSTON CENTRAL SURGERY,Midlands,QK1,WIGSTON,LE18 2EW,0116 2882566,52.583301,-1.116912
C82072,BROOM LEYS SURGERY,Midlands,QK1,COALVILLE,LE67 4DE,01530 832095,52.722901,-1.349838
C82073,MERRIDALE MEDICAL CENTRE (RP TEW),Midlands,QK1,LEICESTER,LE3 1BL,0116 2166996,52.619845,-1.160182
